Time(ms),Roll(Rads),Pitch(Rads),Yaw(Rads),VelX(m/s),VelY(m/s),VelZ(m/s),AccX(g x 10^3),AccY(g x 10^3),AccZ(g x 10^3),Altitude(m),,,,First odometry csv sampled at 200HZ which is 5ms
0,-0.01047198,0.006335545,0.06174975,0,0,0,0,0,0,0,,,,
0,-0.01047198,0.006335545,0.06174975,0,0,0,0,0,0,0,,,,
4,-0.01047198,0.006335545,0.06174975,0,0,0,0,0,0,0,,,,
9,-0.01047198,0.006335545,0.06174975,0,0,0,0,0,0,0,,,,
14,-0.01047198,0.006335545,0.06174975,0,0,0,0,0,0,0,,,,
19,-0.01047198,0.006335545,0.06174975,0,0,0,0,0,0,0,,,,
24,-0.01047198,0.006335545,0.06174975,0,0,0,0,0,0,0,,,,
29,-0.01047198,0.006335545,0.06174975,0,0,0,0,0,0,0,,,,
34,-0.01047198,0.006335545,0.06174975,0,0,0,0,0,0,0,,,,
42,-0.01047198,0.006335545,0.06174975,0,0,0,0,0,0,0,,,,
47,-0.01047198,0.006335545,0.06174975,0,0,0,0,0,0,0,,,,
52,-0.01047198,0.006335545,0.06174975,0,0,0,0,0,0,0,,,,
57,-0.01047198,0.006335545,0.06174975,0,0,0,0,0,0,0,,,,
62,-0.01047198,0.006335545,0.06174975,0,0,0,0,0,0,0,,,,
69,-0.01041962,0.006283185,0.06180211,0,0,0,0,0,0,0,,,,
74,-0.01041962,0.006283185,0.06180211,0,0,0,0,0,0,0,,,,
79,-0.01041962,0.006283185,0.06180211,0,0,0,0,0,0,0,,,,
84,-0.01041962,0.006283185,0.06180211,0,0,0,0,0,0,0,,,,
89,-0.01041962,0.006283185,0.06180211,0,0,0,0,0,0,0,,,,
94,-0.01041962,0.006283185,0.06180211,0,0,0,0,0,0,0,,,,
99,-0.01041962,0.006283185,0.06180211,0,0,0,0,0,0,0,,,,
104,-0.01041962,0.006283185,0.06180211,0,0,0,0,0,0,0,,,,
109,-0.01041962,0.006283185,0.06180211,0,0,0,0,0,0,0,,,,
114,-0.01041962,0.006283185,0.06180211,0,0,0,0,0,0,0,,,,
119,-0.01041962,0.006283185,0.06180211,0,0,0,0,0,0,0,,,,
124,-0.01041962,0.006283185,0.06180211,0,0,0,0,0,0,0,,,,
129,-0.01052434,0.006370452,0.06185447,0,0,0,0,0,0,0,,,,
134,-0.01052434,0.006370452,0.06185447,0,0,0,0,0,0,0,,,,
139,-0.01052434,0.006370452,0.06185447,0,0,0,0,0,0,0,,,,
144,-0.01052434,0.006370452,0.06185447,0,0,0,0,0,0,0,,,,
149,-0.01052434,0.006370452,0.06185447,0,0,0,0,0,0,0,,,,
154,-0.01052434,0.006370452,0.06185447,0,0,0,0,0,0,0,,,,
159,-0.01052434,0.006370452,0.06185447,0,0,0,0,0,0,0,,,,
164,-0.01052434,0.006370452,0.06185447,0,0,0,0,0,0,0,,,,
169,-0.01052434,0.006370452,0.06185447,0,0,0,0,0,0,0,,,,
174,-0.01052434,0.006370452,0.06185447,0,0,0,0,0,0,0,,,,
179,-0.01052434,0.006370452,0.06185447,0,0,0,0,0,0,0,,,,
184,-0.01052434,0.006370452,0.06185447,0,0,0,0,0,0,0,,,,
189,-0.01052434,0.006370452,0.06185447,0,0,0,0,0,0,0,,,,
194,-0.01043707,0.006335545,0.06190683,0,0,0,0,0,0,0,,,,
199,-0.01043707,0.006335545,0.06190683,0,0,0,0,0,0,0,,,,
204,-0.01043707,0.006335545,0.06190683,0,0,0,0,0,0,0,,,,
209,-0.01043707,0.006335545,0.06190683,0,0,0,0,0,0,0,,,,
214,-0.01043707,0.006335545,0.06190683,0,0,0,0,0,0,0,,,,
219,-0.01043707,0.006335545,0.06190683,0,0,0,0,0,0,0,,,,
224,-0.01043707,0.006335545,0.06190683,0,0,0,0,0,0,0,,,,
229,-0.01043707,0.006335545,0.06190683,0,0,0,0,0,0,0,,,,
234,-0.01043707,0.006335545,0.06190683,0,0,0,0,0,0,0,,,,
239,-0.01043707,0.006335545,0.06190683,0,0,0,0,0,0,0,,,,
244,-0.01043707,0.006335545,0.06190683,0,0,0,0,0,0,0,,,,
249,-0.01043707,0.006335545,0.06190683,0,0,0,0,0,0,0,,,,
254,-0.01043707,0.006335545,0.06190683,0,0,0,0,0,0,0,,,,
259,-0.01043707,0.006335545,0.06190683,0,0,0,0,0,0,0,,,,
264,-0.01043707,0.006335545,0.06190683,0,0,0,0,0,0,0,,,,
269,-0.01043707,0.006335545,0.06190683,0,0,0,0,0,0,0,,,,
274,-0.01050688,0.006352998,0.06194174,0,0,0,0,0,0,0,,,,
279,-0.01050688,0.006352998,0.06194174,0,0,0,0,0,0,0,,,,
284,-0.01050688,0.006352998,0.06194174,0,0,0,0,0,0,0,,,,
289,-0.01050688,0.006352998,0.06194174,0,0,0,0,0,0,0,,,,
294,-0.01050688,0.006352998,0.06194174,0,0,0,0,0,0,0,,,,
299,-0.01050688,0.006352998,0.06194174,0,0,0,0,0,0,0,,,,
304,-0.01050688,0.006352998,0.06194174,0,0,0,0,0,0,0,,,,
310,-0.01050688,0.006352998,0.06194174,0,0,0,0,0,0,0,,,,
315,-0.01050688,0.006352998,0.06194174,0,0,0,0,0,0,0,,,,
320,-0.01050688,0.006352998,0.06194174,0,0,0,0,0,0,0,,,,
325,-0.01054179,0.006335545,0.06201155,0,0,0,0,0,0,0,,,,
330,-0.01054179,0.006335545,0.06201155,0,0,0,0,0,0,0,,,,
335,-0.01054179,0.006335545,0.06201155,0,0,0,0,0,0,0,,,,
340,-0.01054179,0.006335545,0.06201155,0,0,0,0,0,0,0,,,,
345,-0.01054179,0.006335545,0.06201155,0,0,0,0,0,0,0,,,,
350,-0.01054179,0.006335545,0.06201155,0,0,0,0,0,0,0,,,,
355,-0.01054179,0.006335545,0.06201155,0,0,0,0,0,0,0,,,,
360,-0.01054179,0.006335545,0.06201155,0,0,0,0,0,0,0,,,,
365,-0.01054179,0.006335545,0.06201155,0,0,0,0,0,0,0,,,,
370,-0.01054179,0.006335545,0.06201155,0,0,0,0,0,0,0,,,,
375,-0.01054179,0.006335545,0.06201155,0,0,0,0,0,0,0,,,,
380,-0.01054179,0.006335545,0.06201155,0,0,0,0,0,0,0,,,,
385,-0.01054179,0.006335545,0.06201155,0,0,0,0,0,0,0,,,,
390,-0.01062906,0.006300638,0.06206391,0,0,0,0,0,0,0,,,,
395,-0.01062906,0.006300638,0.06206391,0,0,0,0,0,0,0,,,,
400,-0.01062906,0.006300638,0.06206391,0,0,0,0,0,0,0,,,,
405,-0.01062906,0.006300638,0.06206391,0,0,0,0,0,0,0,,,,
410,-0.01062906,0.006300638,0.06206391,0,0,0,0,0,0,0,,,,
415,-0.01062906,0.006300638,0.06206391,0,0,0,0,0,0,0,,,,
420,-0.01062906,0.006300638,0.06206391,0,0,0,0,0,0,0,,,,
425,-0.01062906,0.006300638,0.06206391,0,0,0,0,0,0,0,,,,
430,-0.01062906,0.006300638,0.06206391,0,0,0,0,0,0,0,,,,
435,-0.01062906,0.006300638,0.06206391,0,0,0,0,0,0,0,,,,
440,-0.01062906,0.006300638,0.06206391,0,0,0,0,0,0,0,,,,
445,-0.01062906,0.006300638,0.06206391,0,0,0,0,0,0,0,,,,
450,-0.01062906,0.006300638,0.06206391,0,0,0,0,0,0,0,,,,
455,-0.01068141,0.006352998,0.06208136,0,0,0,0,0,0,0,,,,
460,-0.01068141,0.006352998,0.06208136,0,0,0,0,0,0,0,,,,
465,-0.01068141,0.006352998,0.06208136,0,0,0,0,0,0,0,,,,
470,-0.01068141,0.006352998,0.06208136,0,0,0,0,0,0,0,,,,
475,-0.01068141,0.006352998,0.06208136,0,0,0,0,0,0,0,,,,
480,-0.01068141,0.006352998,0.06208136,0,0,0,0,0,0,0,,,,
485,-0.01068141,0.006352998,0.06208136,0,0,0,0,0,0,0,,,,
490,-0.01068141,0.006352998,0.06208136,0,0,0,0,0,0,0,,,,
495,-0.01068141,0.006352998,0.06208136,0,0,0,0,0,0,0,,,,
500,-0.01068141,0.006352998,0.06208136,0,0,0,0,0,0,0,,,,
505,-0.01068141,0.006352998,0.06208136,0,0,0,0,0,0,0,,,,
510,-0.01068141,0.006352998,0.06208136,0,0,0,0,0,0,0,,,,
515,-0.01068141,0.006352998,0.06208136,0,0,0,0,0,0,0,,,,
520,-0.01071632,0.006352998,0.06211627,0,0,0,0,0,0,0,,,,
525,-0.01071632,0.006352998,0.06211627,0,0,0,0,0,0,0,,,,
530,-0.01071632,0.006352998,0.06211627,0,0,0,0,0,0,0,,,,
535,-0.01071632,0.006352998,0.06211627,0,0,0,0,0,0,0,,,,
540,-0.01071632,0.006352998,0.06211627,0,0,0,0,0,0,0,,,,
545,-0.01071632,0.006352998,0.06211627,0,0,0,0,0,0,0,,,,
550,-0.01071632,0.006352998,0.06211627,0,0,0,0,0,0,0,,,,
555,-0.01071632,0.006352998,0.06211627,0,0,0,0,0,0,0,,,,
560,-0.01071632,0.006352998,0.06211627,0,0,0,0,0,0,0,,,,
565,-0.01071632,0.006352998,0.06211627,0,0,0,0,0,0,0,,,,
570,-0.01071632,0.006352998,0.06211627,0,0,0,0,0,0,0,,,,
575,-0.01071632,0.006352998,0.06211627,0,0,0,0,0,0,0,,,,
580,-0.01071632,0.006352998,0.06211627,0,0,0,0,0,0,0,,,,
585,-0.01073377,0.006283185,0.06213372,0,0,0,0,0,0,0,,,,
590,-0.01073377,0.006283185,0.06213372,0,0,0,0,0,0,0,,,,
595,-0.01073377,0.006283185,0.06213372,0,0,0,0,0,0,0,,,,
600,-0.01073377,0.006283185,0.06213372,0,0,0,0,0,0,0,,,,
605,-0.01073377,0.006283185,0.06213372,0,0,0,0,0,0,0,,,,
610,-0.01073377,0.006283185,0.06213372,0,0,0,0,0,0,0,,,,
615,-0.01073377,0.006283185,0.06213372,0,0,0,0,0,0,0,,,,
620,-0.01073377,0.006283185,0.06213372,0,0,0,0,0,0,0,,,,
625,-0.01073377,0.006283185,0.06213372,0,0,0,0,0,0,0,,,,
630,-0.01073377,0.006283185,0.06213372,0,0,0,0,0,0,0,,,,
635,-0.01073377,0.006283185,0.06213372,0,0,0,0,0,0,0,,,,
640,-0.01073377,0.006283185,0.06213372,0,0,0,0,0,0,0,,,,
645,-0.01073377,0.006283185,0.06213372,0,0,0,0,0,0,0,,,,
650,-0.01069887,0.006300638,0.06222099,0,0,0,0,0,0,0,,,,
655,-0.01069887,0.006300638,0.06222099,0,0,0,0,0,0,0,,,,
660,-0.01069887,0.006300638,0.06222099,0,0,0,0,0,0,0,,,,
665,-0.01069887,0.006300638,0.06222099,0,0,0,0,0,0,0,,,,
670,-0.01069887,0.006300638,0.06222099,0,0,0,0,0,0,0,,,,
675,-0.01069887,0.006300638,0.06222099,0,0,0,0,0,0,0,,,,
680,-0.01069887,0.006300638,0.06222099,0,0,0,0,0,0,0,,,,
685,-0.01069887,0.006300638,0.06222099,0,0,0,0,0,0,0,,,,
690,-0.01069887,0.006300638,0.06222099,0,0,0,0,0,0,0,,,,
695,-0.01069887,0.006300638,0.06222099,0,0,0,0,0,0,0,,,,
701,-0.01069887,0.006300638,0.06222099,0,0,0,0,0,0,0,,,,
705,-0.01069887,0.006300638,0.06222099,0,0,0,0,0,0,0,,,,
710,-0.01069887,0.006300638,0.06222099,0,0,0,0,0,0,0,,,,
715,-0.01064651,0.006300638,0.06227335,0,0,0,0,0,0,0,,,,
720,-0.01064651,0.006300638,0.06227335,0,0,0,0,0,0,0,,,,
725,-0.01064651,0.006300638,0.06227335,0,0,0,0,0,0,0,,,,
730,-0.01064651,0.006300638,0.06227335,0,0,0,0,0,0,0,,,,
735,-0.01064651,0.006300638,0.06227335,0,0,0,0,0,0,0,,,,
740,-0.01064651,0.006300638,0.06227335,0,0,0,0,0,0,0,,,,
745,-0.01064651,0.006300638,0.06227335,0,0,0,0,0,0,0,,,,
750,-0.01064651,0.006300638,0.06227335,0,0,0,0,0,0,0,,,,
755,-0.01064651,0.006300638,0.06227335,0,0,0,0,0,0,0,,,,
760,-0.01064651,0.006300638,0.06227335,0,0,0,0,0,0,0,,,,
765,-0.01064651,0.006300638,0.06227335,0,0,0,0,0,0,0,,,,
770,-0.01064651,0.006300638,0.06227335,0,0,0,0,0,0,0,,,,
775,-0.01064651,0.006300638,0.06227335,0,0,0,0,0,0,0,,,,
780,-0.01075123,0.006283185,0.0622908,0,0,0,0,0,0,0,,,,
785,-0.01075123,0.006283185,0.0622908,0,0,0,0,0,0,0,,,,
790,-0.01075123,0.006283185,0.0622908,0,0,0,0,0,0,0,,,,
795,-0.01075123,0.006283185,0.0622908,0,0,0,0,0,0,0,,,,
800,-0.01075123,0.006283185,0.0622908,0,0,0,0,0,0,0,,,,
805,-0.01075123,0.006283185,0.0622908,0,0,0,0,0,0,0,,,,
810,-0.01075123,0.006283185,0.0622908,0,0,0,0,0,0,0,,,,
815,-0.01075123,0.006283185,0.0622908,0,0,0,0,0,0,0,,,,
822,-0.01075123,0.006283185,0.0622908,0,0,0,0,0,0,0,,,,
826,-0.01075123,0.006283185,0.0622908,0,0,0,0,0,0,0,,,,
831,-0.01075123,0.006283185,0.0622908,0,0,0,0,0,0,0,,,,
836,-0.01075123,0.006283185,0.0622908,0,0,0,0,0,0,0,,,,
841,-0.01075123,0.006283185,0.0622908,0,0,0,0,0,0,0,,,,
846,-0.01082104,0.006248279,0.06236061,0,0,0,0,0,0,0,,,,
851,-0.01082104,0.006248279,0.06236061,0,0,0,0,0,0,0,,,,
856,-0.01082104,0.006248279,0.06236061,0,0,0,0,0,0,0,,,,
861,-0.01082104,0.006248279,0.06236061,0,0,0,0,0,0,0,,,,
866,-0.01082104,0.006248279,0.06236061,0,0,0,0,0,0,0,,,,
871,-0.01082104,0.006248279,0.06236061,0,0,0,0,0,0,0,,,,
876,-0.01082104,0.006248279,0.06236061,0,0,0,0,0,0,0,,,,
881,-0.01082104,0.006248279,0.06236061,0,0,0,0,0,0,0,,,,
886,-0.01082104,0.006248279,0.06236061,0,0,0,0,0,0,0,,,,
891,-0.01082104,0.006248279,0.06236061,0,0,0,0,0,0,0,,,,
896,-0.01082104,0.006248279,0.06236061,0,0,0,0,0,0,0,,,,
901,-0.01082104,0.006248279,0.06236061,0,0,0,0,0,0,0,,,,
906,-0.01082104,0.006248279,0.06236061,0,0,0,0,0,0,0,,,,
911,-0.01090831,0.006248279,0.06241297,0,0,0,0,0,0,0,,,,
916,-0.01090831,0.006248279,0.06241297,0,0,0,0,0,0,0,,,,
921,-0.01090831,0.006248279,0.06241297,0,0,0,0,0,0,0,,,,
926,-0.01090831,0.006248279,0.06241297,0,0,0,0,0,0,0,,,,
931,-0.01090831,0.006248279,0.06241297,0,0,0,0,0,0,0,,,,
936,-0.01090831,0.006248279,0.06241297,0,0,0,0,0,0,0,,,,
941,-0.01090831,0.006248279,0.06241297,0,0,0,0,0,0,0,,,,
946,-0.01090831,0.006248279,0.06241297,0,0,0,0,0,0,0,,,,
951,-0.01090831,0.006248279,0.06241297,0,0,0,0,0,0,0,,,,
956,-0.01090831,0.006248279,0.06241297,0,0,0,0,0,0,0,,,,
961,-0.01090831,0.006248279,0.06241297,0,0,0,0,0,0,0,,,,
966,-0.01090831,0.006248279,0.06241297,0,0,0,0,0,0,0,,,,
971,-0.01090831,0.006248279,0.06241297,0,0,0,0,0,0,0,,,,
976,-0.01075123,0.006178466,0.06246533,0,0,0,0,0,0,0,,,,
981,-0.01075123,0.006178466,0.06246533,0,0,0,0,0,0,0,,,,
986,-0.01075123,0.006178466,0.06246533,0,0,0,0,0,0,0,,,,
991,-0.01075123,0.006178466,0.06246533,0,0,0,0,0,0,0,,,,
996,-0.01075123,0.006178466,0.06246533,0,0,0,0,0,0,0,,,,
1001,-0.01075123,0.006178466,0.06246533,0,0,0,0,0,0,0,,,,
1006,-0.01075123,0.006178466,0.06246533,0,0,0,0,0,0,0,,,,
1011,-0.01075123,0.006178466,0.06246533,0,0,0,0,0,0,0,,,,
1016,-0.01075123,0.006178466,0.06246533,0,0,0,0,0,0,0,,,,
1021,-0.01075123,0.006178466,0.06246533,0,0,0,0,0,0,0,,,,
1026,-0.01075123,0.006178466,0.06246533,0,0,0,0,0,0,0,,,,
1031,-0.01075123,0.006178466,0.06246533,0,0,0,0,0,0,0,,,,
1036,-0.01075123,0.006178466,0.06246533,0,0,0,0,0,0,0,,,,
1041,-0.01068141,0.006126106,0.0625177,0,0,0,0,0,0,0,,,,
1046,-0.01068141,0.006126106,0.0625177,0,0,0,0,0,0,0,,,,
1051,-0.01068141,0.006126106,0.0625177,0,0,0,0,0,0,0,,,,
1056,-0.01068141,0.006126106,0.0625177,0,0,0,0,0,0,0,,,,
1061,-0.01068141,0.006126106,0.0625177,0,0,0,0,0,0,0,,,,
1066,-0.01068141,0.006126106,0.0625177,0,0,0,0,0,0,0,,,,
1071,-0.01068141,0.006126106,0.0625177,0,0,0,0,0,0,0,,,,
1076,-0.01068141,0.006126106,0.0625177,0,0,0,0,0,0,0,,,,
1081,-0.01068141,0.006126106,0.0625177,0,0,0,0,0,0,0,,,,
1086,-0.01068141,0.006126106,0.0625177,0,0,0,0,0,0,0,,,,
1091,-0.01068141,0.006126106,0.0625177,0,0,0,0,0,0,0,,,,
1096,-0.01068141,0.006126106,0.0625177,0,0,0,0,0,0,0,,,,
1101,-0.01068141,0.006126106,0.0625177,0,0,0,0,0,0,0,,,,
1106,-0.01066396,0.006195919,0.06257005,0,0,0,0,0,0,0,,,,
1111,-0.01066396,0.006195919,0.06257005,0,0,0,0,0,0,0,,,,
1116,-0.01066396,0.006195919,0.06257005,0,0,0,0,0,0,0,,,,
1122,-0.01066396,0.006195919,0.06257005,0,0,0,0,0,0,0,,,,
1126,-0.01066396,0.006195919,0.06257005,0,0,0,0,0,0,0,,,,
1131,-0.01066396,0.006195919,0.06257005,0,0,0,0,0,0,0,,,,
1136,-0.01066396,0.006195919,0.06257005,0,0,0,0,0,0,0,,,,
1141,-0.01066396,0.006195919,0.06257005,0,0,0,0,0,0,0,,,,
1146,-0.01066396,0.006195919,0.06257005,0,0,0,0,0,0,0,,,,
1151,-0.01066396,0.006195919,0.06257005,0,0,0,0,0,0,0,,,,
1156,-0.01066396,0.006195919,0.06257005,0,0,0,0,0,0,0,,,,
1161,-0.01066396,0.006195919,0.06257005,0,0,0,0,0,0,0,,,,
1166,-0.01066396,0.006195919,0.06257005,0,0,0,0,0,0,0,,,,
1171,-0.01073377,0.006195919,0.06262241,0,0,0,0,0,0,0,,,,
1176,-0.01073377,0.006195919,0.06262241,0,0,0,0,0,0,0,,,,
1181,-0.01073377,0.006195919,0.06262241,0,0,0,0,0,0,0,,,,
1186,-0.01073377,0.006195919,0.06262241,0,0,0,0,0,0,0,,,,
1191,-0.01073377,0.006195919,0.06262241,0,0,0,0,0,0,0,,,,
1196,-0.01073377,0.006195919,0.06262241,0,0,0,0,0,0,0,,,,
1201,-0.01073377,0.006195919,0.06262241,0,0,0,0,0,0,0,,,,
1206,-0.01073377,0.006195919,0.06262241,0,0,0,0,0,0,0,,,,
1211,-0.01073377,0.006195919,0.06262241,0,0,0,0,0,0,0,,,,
1216,-0.01073377,0.006195919,0.06262241,0,0,0,0,0,0,0,,,,
1221,-0.01073377,0.006195919,0.06262241,0,0,0,0,0,0,0,,,,
1226,-0.01073377,0.006195919,0.06262241,0,0,0,0,0,0,0,,,,
1231,-0.01073377,0.006195919,0.06262241,0,0,0,0,0,0,0,,,,
1236,-0.01076868,0.006178466,0.06267478,0,0,0,0,0,0,0,,,,
1241,-0.01076868,0.006178466,0.06267478,0,0,0,0,0,0,0,,,,
1246,-0.01076868,0.006178466,0.06267478,0,0,0,0,0,0,0,,,,
1251,-0.01076868,0.006178466,0.06267478,0,0,0,0,0,0,0,,,,
1256,-0.01076868,0.006178466,0.06267478,0,0,0,0,0,0,0,,,,
1261,-0.01076868,0.006178466,0.06267478,0,0,0,0,0,0,0,,,,
1266,-0.01076868,0.006178466,0.06267478,0,0,0,0,0,0,0,,,,
1272,-0.01076868,0.006178466,0.06267478,0,0,0,0,0,0,0,,,,
1276,-0.01076868,0.006178466,0.06267478,0,0,0,0,0,0,0,,,,
1281,-0.01076868,0.006178466,0.06267478,0,0,0,0,0,0,0,,,,
1287,-0.01076868,0.006178466,0.06267478,0,0,0,0,0,0,0,,,,
1292,-0.01076868,0.006178466,0.06267478,0,0,0,0,0,0,0,,,,
1297,-0.01076868,0.006178466,0.06267478,0,0,0,0,0,0,0,,,,
1302,-0.01073377,0.006230825,0.06276204,0,0,0,0,0,0,0,,,,
1307,-0.01073377,0.006230825,0.06276204,0,0,0,0,0,0,0,,,,
1312,-0.01073377,0.006230825,0.06276204,0,0,0,0,0,0,0,,,,
1317,-0.01073377,0.006230825,0.06276204,0,0,0,0,0,0,0,,,,
1322,-0.01073377,0.006230825,0.06276204,0,0,0,0,0,0,0,,,,
1327,-0.01073377,0.006230825,0.06276204,0,0,0,0,0,0,0,,,,
1332,-0.01073377,0.006230825,0.06276204,0,0,0,0,0,0,0,,,,
1337,-0.01073377,0.006230825,0.06276204,0,0,0,0,0,0,0,,,,
1342,-0.01073377,0.006230825,0.06276204,0,0,0,0,0,0,0,,,,
1347,-0.01073377,0.006230825,0.06276204,0,0,0,0,0,0,0,,,,
1352,-0.01073377,0.006230825,0.06276204,0,0,0,0,0,0,0,,,,
1357,-0.01073377,0.006230825,0.06276204,0,0,0,0,0,0,0,,,,
1362,-0.01073377,0.006230825,0.06276204,0,0,0,0,0,0,0,,,,
1367,-0.01073377,0.006230825,0.06276204,0,0,0,0,0,0,0,,,,
1372,-0.01048943,0.006161012,0.06279695,0,0,0,0,0,0,0,,,,
1377,-0.01048943,0.006161012,0.06279695,0,0,0,0,0,0,0,,,,
1382,-0.01048943,0.006161012,0.06279695,0,0,0,0,0,0,0,,,,
1387,-0.01048943,0.006161012,0.06279695,0,0,0,0,0,0,0,,,,
1392,-0.01048943,0.006161012,0.06279695,0,0,0,0,0,0,0,,,,
1397,-0.01048943,0.006161012,0.06279695,0,0,0,0,0,0,0,,,,
1402,-0.01048943,0.006161012,0.06279695,0,0,0,0,0,0,0,,,,
1407,-0.01048943,0.006161012,0.06279695,0,0,0,0,0,0,0,,,,
1412,-0.01048943,0.006161012,0.06279695,0,0,0,0,0,0,0,,,,
1417,-0.01048943,0.006161012,0.06279695,0,0,0,0,0,0,0,,,,
1423,-0.01048943,0.006161012,0.06279695,0,0,0,0,0,0,0,,,,
1428,-0.01048943,0.006161012,0.06279695,0,0,0,0,0,0,0,,,,
1433,-0.01048943,0.006161012,0.06279695,0,0,0,0,0,0,0,,,,
1438,-0.01048943,0.006161012,0.06279695,0,0,0,0,0,0,0,,,,
1443,-0.01048943,0.006161012,0.06279695,0,0,0,0,0,0,0,,,,
1448,-0.01048943,0.006161012,0.06279695,0,0,0,0,0,0,0,,,,
1453,-0.01048943,0.006161012,0.06279695,0,0,0,0,0,0,0,,,,
1458,-0.01048943,0.006161012,0.06279695,0,0,0,0,0,0,0,,,,
1463,-0.01048943,0.006161012,0.06279695,0,0,0,0,0,0,0,,,,
1468,-0.01048943,0.006161012,0.06279695,0,0,0,0,0,0,0,,,,
1473,-0.01048943,0.006161012,0.06279695,0,0,0,0,0,0,0,,,,
1478,-0.01048943,0.006161012,0.06279695,0,0,0,0,0,0,0,,,,
1483,-0.01048943,0.006161012,0.06279695,0,0,0,0,0,0,0,,,,
1488,-0.01048943,0.006161012,0.06279695,0,0,0,0,0,0,0,,,,
1493,-0.01048943,0.006161012,0.06279695,0,0,0,0,0,0,0,,,,
1498,-0.01021018,0.006091199,0.06291912,0,0,0,0,0,0,0,,,,
1504,-0.01021018,0.006091199,0.06291912,0,0,0,0,0,0,0,,,,
1510,-0.01021018,0.006091199,0.06291912,0,0,0,0,0,0,0,,,,
1515,-0.01021018,0.006091199,0.06291912,0,0,0,0,0,0,0,,,,
1520,-0.01021018,0.006091199,0.06291912,0,0,0,0,0,0,0,,,,
1525,-0.01021018,0.006091199,0.06291912,0,0,0,0,0,0,0,,,,
1530,-0.01021018,0.006091199,0.06291912,0,0,0,0,0,0,0,,,,
1535,-0.01021018,0.006091199,0.06291912,0,0,0,0,0,0,0,,,,
1541,-0.01021018,0.006091199,0.06291912,0,0,0,0,0,0,0,,,,
1546,-0.01021018,0.006091199,0.06291912,0,0,0,0,0,0,0,,,,
1551,-0.01021018,0.006091199,0.06291912,0,0,0,0,0,0,0,,,,
1556,-0.01021018,0.006091199,0.06291912,0,0,0,0,0,0,0,,,,
1561,-0.01027999,0.005986479,0.06297148,0,0,0,0,0,0,0,,,,
1566,-0.01027999,0.005986479,0.06297148,0,0,0,0,0,0,0,,,,
1571,-0.01027999,0.005986479,0.06297148,0,0,0,0,0,0,0,,,,
1576,-0.01027999,0.005986479,0.06297148,0,0,0,0,0,0,0,,,,
1581,-0.01027999,0.005986479,0.06297148,0,0,0,0,0,0,0,,,,
1586,-0.01027999,0.005986479,0.06297148,0,0,0,0,0,0,0,,,,
1591,-0.01027999,0.005986479,0.06297148,0,0,0,0,0,0,0,,,,
1596,-0.01027999,0.005986479,0.06297148,0,0,0,0,0,0,0,,,,
1601,-0.01027999,0.005986479,0.06297148,0,0,0,0,0,0,0,,,,
1606,-0.01027999,0.005986479,0.06297148,0,0,0,0,0,0,0,,,,
1611,-0.01027999,0.005986479,0.06297148,0,0,0,0,0,0,0,,,,
1616,-0.01027999,0.005986479,0.06297148,0,0,0,0,0,0,0,,,,
1621,-0.01027999,0.005986479,0.06297148,0,0,0,0,0,0,0,,,,
1626,-0.01027999,0.005986479,0.06297148,0,0,0,0,0,0,0,,,,
1631,-0.01036726,0.005951573,0.06304129,0,0,0,0,0,0,0,,,,
1636,-0.01036726,0.005951573,0.06304129,0,0,0,0,0,0,0,,,,
1641,-0.01036726,0.005951573,0.06304129,0,0,0,0,0,0,0,,,,
1646,-0.01036726,0.005951573,0.06304129,0,0,0,0,0,0,0,,,,
1651,-0.01036726,0.005951573,0.06304129,0,0,0,0,0,0,0,,,,
1656,-0.01036726,0.005951573,0.06304129,0,0,0,0,0,0,0,,,,
1661,-0.01036726,0.005951573,0.06304129,0,0,0,0,0,0,0,,,,
1666,-0.01036726,0.005951573,0.06304129,0,0,0,0,0,0,0,,,,
1671,-0.01036726,0.005951573,0.06304129,0,0,0,0,0,0,0,,,,
1676,-0.01036726,0.005951573,0.06304129,0,0,0,0,0,0,0,,,,
1681,-0.01036726,0.005951573,0.06304129,0,0,0,0,0,0,0,,,,
1686,-0.01036726,0.005951573,0.06304129,0,0,0,0,0,0,0,,,,
1691,-0.01036726,0.005951573,0.06304129,0,0,0,0,0,0,0,,,,
1696,-0.01022763,0.005916666,0.06309365,0,0,0,0,0,0,0,,,,
1701,-0.01022763,0.005916666,0.06309365,0,0,0,0,0,0,0,,,,
1706,-0.01022763,0.005916666,0.06309365,0,0,0,0,0,0,0,,,,
1711,-0.01022763,0.005916666,0.06309365,0,0,0,0,0,0,0,,,,
1716,-0.01022763,0.005916666,0.06309365,0,0,0,0,0,0,0,,,,
1721,-0.01022763,0.005916666,0.06309365,0,0,0,0,0,0,0,,,,
1726,-0.01022763,0.005916666,0.06309365,0,0,0,0,0,0,0,,,,
1731,-0.01022763,0.005916666,0.06309365,0,0,0,0,0,0,0,,,,
1736,-0.01022763,0.005916666,0.06309365,0,0,0,0,0,0,0,,,,
1741,-0.01022763,0.005916666,0.06309365,0,0,0,0,0,0,0,,,,
1746,-0.01022763,0.005916666,0.06309365,0,0,0,0,0,0,0,,,,
1751,-0.01022763,0.005916666,0.06309365,0,0,0,0,0,0,0,,,,
1756,-0.0103149,0.005916666,0.06318092,0,0,0,0,0,0,0,,,,
1761,-0.0103149,0.005916666,0.06318092,0,0,0,0,0,0,0,,,,
1766,-0.0103149,0.005916666,0.06318092,0,0,0,0,0,0,0,,,,
1771,-0.0103149,0.005916666,0.06318092,0,0,0,0,0,0,0,,,,
1776,-0.0103149,0.005916666,0.06318092,0,0,0,0,0,0,0,,,,
1781,-0.0103149,0.005916666,0.06318092,0,0,0,0,0,0,0,,,,
1786,-0.0103149,0.005916666,0.06318092,0,0,0,0,0,0,0,,,,
1791,-0.0103149,0.005916666,0.06318092,0,0,0,0,0,0,0,,,,
1796,-0.0103149,0.005916666,0.06318092,0,0,0,0,0,0,0,,,,
1801,-0.0103149,0.005916666,0.06318092,0,0,0,0,0,0,0,,,,
1806,-0.0103149,0.005916666,0.06318092,0,0,0,0,0,0,0,,,,
1811,-0.0103149,0.005916666,0.06318092,0,0,0,0,0,0,0,,,,
1816,-0.0103149,0.005916666,0.06318092,0,0,0,0,0,0,0,,,,
1821,-0.0103149,0.005916666,0.06318092,0,0,0,0,0,0,0,,,,
1826,-0.0103149,0.005916666,0.06318092,0,0,0,0,0,0,0,,,,
1831,-0.0103149,0.005916666,0.06318092,0,0,0,0,0,0,0,,,,
1836,-0.0103149,0.005916666,0.06325074,0,0,0,0,0,0,0,,,,
1841,-0.0103149,0.005916666,0.06325074,0,0,0,0,0,0,0,,,,
1846,-0.0103149,0.005916666,0.06325074,0,0,0,0,0,0,0,,,,
1851,-0.0103149,0.005916666,0.06325074,0,0,0,0,0,0,0,,,,
1856,-0.0103149,0.005916666,0.06325074,0,0,0,0,0,0,0,,,,
1861,-0.0103149,0.005916666,0.06325074,0,0,0,0,0,0,0,,,,
1866,-0.0103149,0.005916666,0.06325074,0,0,0,0,0,0,0,,,,
1873,-0.0103149,0.005916666,0.06325074,0,0,0,0,0,0,0,,,,
1877,-0.0103149,0.005916666,0.06325074,0,0,0,0,0,0,0,,,,
1882,-0.0103149,0.005916666,0.06325074,0,0,0,0,0,0,0,,,,
1887,-0.01038471,0.005899213,0.06332055,0,0,0,0,0,0,0,,,,
1892,-0.01038471,0.005899213,0.06332055,0,0,0,0,0,0,0,,,,
1897,-0.01038471,0.005899213,0.06332055,0,0,0,0,0,0,0,,,,
1902,-0.01038471,0.005899213,0.06332055,0,0,0,0,0,0,0,,,,
1907,-0.01038471,0.005899213,0.06332055,0,0,0,0,0,0,0,,,,
1912,-0.01038471,0.005899213,0.06332055,0,0,0,0,0,0,0,,,,
1917,-0.01038471,0.005899213,0.06332055,0,0,0,0,0,0,0,,,,
1924,-0.01038471,0.005899213,0.06332055,0,0,0,0,0,0,0,,,,
1929,-0.01038471,0.005899213,0.06332055,0,0,0,0,0,0,0,,,,
1934,-0.01038471,0.005899213,0.06332055,0,0,0,0,0,0,0,,,,
1939,-0.01038471,0.005899213,0.06332055,0,0,0,0,0,0,0,,,,
1944,-0.01038471,0.005899213,0.06332055,0,0,0,0,0,0,0,,,,
1949,-0.01038471,0.005899213,0.06332055,0,0,0,0,0,0,0,,,,
1954,-0.01047198,0.005811946,0.0633729,0,0,0,0,0,0,0,,,,
1959,-0.01047198,0.005811946,0.0633729,0,0,0,0,0,0,0,,,,
1964,-0.01047198,0.005811946,0.0633729,0,0,0,0,0,0,0,,,,
1969,-0.01047198,0.005811946,0.0633729,0,0,0,0,0,0,0,,,,
1974,-0.01047198,0.005811946,0.0633729,0,0,0,0,0,0,0,,,,
1979,-0.01047198,0.005811946,0.0633729,0,0,0,0,0,0,0,,,,
1984,-0.01047198,0.005811946,0.0633729,0,0,0,0,0,0,0,,,,
1989,-0.01047198,0.005811946,0.0633729,0,0,0,0,0,0,0,,,,
1994,-0.01047198,0.005811946,0.0633729,0,0,0,0,0,0,0,,,,
1999,-0.01047198,0.005811946,0.0633729,0,0,0,0,0,0,0,,,,
2004,-0.01047198,0.005811946,0.0633729,0,0,0,0,0,0,0,,,,
2009,-0.01047198,0.005811946,0.0633729,0,0,0,0,0,0,0,,,,
2014,-0.01047198,0.005811946,0.0633729,0,0,0,0,0,0,0,,,,
2019,-0.01052434,0.005811946,0.06339036,0,0,0,0,0,0,0,,,,
2024,-0.01052434,0.005811946,0.06339036,0,0,0,0,0,0,0,,,,
2029,-0.01052434,0.005811946,0.06339036,0,0,0,0,0,0,0,,,,
2034,-0.01052434,0.005811946,0.06339036,0,0,0,0,0,0,0,,,,
2039,-0.01052434,0.005811946,0.06339036,0,0,0,0,0,0,0,,,,
2044,-0.01052434,0.005811946,0.06339036,0,0,0,0,0,0,0,,,,
2049,-0.01052434,0.005811946,0.06339036,0,0,0,0,0,0,0,,,,
2054,-0.01052434,0.005811946,0.06339036,0,0,0,0,0,0,0,,,,
2059,-0.01052434,0.005811946,0.06339036,0,0,0,0,0,0,0,,,,
2064,-0.01052434,0.005811946,0.06339036,0,0,0,0,0,0,0,,,,
2069,-0.01052434,0.005811946,0.06339036,0,0,0,0,0,0,0,,,,
2074,-0.01052434,0.005811946,0.06339036,0,0,0,0,0,0,0,,,,
2079,-0.01052434,0.005811946,0.06339036,0,0,0,0,0,0,0,,,,
2084,-0.01052434,0.005811946,0.06339036,0,0,0,0,0,0,0,,,,
2089,-0.01059415,0.005794493,0.06347763,0,0,0,0,0,0,0,,,,
2100,-0.01059415,0.005794493,0.06347763,0,0,0,0,0,0,0,,,,
2105,-0.01059415,0.005794493,0.06347763,0,0,0,0,0,0,0,,,,
2110,-0.01059415,0.005794493,0.06347763,0,0,0,0,0,0,0,,,,
2115,-0.01059415,0.005794493,0.06347763,0,0,0,0,0,0,0,,,,
2120,-0.01059415,0.005794493,0.06347763,0,0,0,0,0,0,0,,,,
2125,-0.01059415,0.005794493,0.06347763,0,0,0,0,0,0,0,,,,
2130,-0.01059415,0.005794493,0.06347763,0,0,0,0,0,0,0,,,,
2135,-0.01059415,0.005794493,0.06347763,0,0,0,0,0,0,0,,,,
2140,-0.01059415,0.005794493,0.06347763,0,0,0,0,0,0,0,,,,
2145,-0.01059415,0.005794493,0.06347763,0,0,0,0,0,0,0,,,,
2150,-0.0106116,0.00577704,0.06354744,0,0,0,0,0,0,0,,,,
2155,-0.0106116,0.00577704,0.06354744,0,0,0,0,0,0,0,,,,
2160,-0.0106116,0.00577704,0.06354744,0,0,0,0,0,0,0,,,,
2165,-0.0106116,0.00577704,0.06354744,0,0,0,0,0,0,0,,,,
2170,-0.0106116,0.00577704,0.06354744,0,0,0,0,0,0,0,,,,
2175,-0.0106116,0.00577704,0.06354744,0,0,0,0,0,0,0,,,,
2180,-0.0106116,0.00577704,0.06354744,0,0,0,0,0,0,0,,,,
2185,-0.0106116,0.00577704,0.06354744,0,0,0,0,0,0,0,,,,
2190,-0.0106116,0.00577704,0.06354744,0,0,0,0,0,0,0,,,,
2195,-0.0106116,0.00577704,0.06354744,0,0,0,0,0,0,0,,,,
2200,-0.0106116,0.00577704,0.06354744,0,0,0,0,0,0,0,,,,
2205,-0.0106116,0.00577704,0.06354744,0,0,0,0,0,0,0,,,,
2210,-0.0106116,0.00577704,0.06354744,0,0,0,0,0,0,0,,,,
2215,-0.01045452,0.00572468,0.06356489,0,0,0,0,0,0,0,,,,
2220,-0.01045452,0.00572468,0.06356489,0,0,0,0,0,0,0,,,,
2225,-0.01045452,0.00572468,0.06356489,0,0,0,0,0,0,0,,,,
2230,-0.01045452,0.00572468,0.06356489,0,0,0,0,0,0,0,,,,
2235,-0.01045452,0.00572468,0.06356489,0,0,0,0,0,0,0,,,,
2240,-0.01045452,0.00572468,0.06356489,0,0,0,0,0,0,0,,,,
2245,-0.01045452,0.00572468,0.06356489,0,0,0,0,0,0,0,,,,
2250,-0.01045452,0.00572468,0.06356489,0,0,0,0,0,0,0,,,,
2255,-0.01045452,0.00572468,0.06356489,0,0,0,0,0,0,0,,,,
2260,-0.01045452,0.00572468,0.06356489,0,0,0,0,0,0,0,,,,
2265,-0.01045452,0.00572468,0.06356489,0,0,0,0,0,0,0,,,,
2270,-0.01045452,0.00572468,0.06356489,0,0,0,0,0,0,0,,,,
2275,-0.01045452,0.00572468,0.06356489,0,0,0,0,0,0,0,,,,
2280,-0.01036726,0.005707227,0.0636347,0,0,0,0,0,0,0,,,,
2285,-0.01036726,0.005707227,0.0636347,0,0,0,0,0,0,0,,,,
2290,-0.01036726,0.005707227,0.0636347,0,0,0,0,0,0,0,,,,
2295,-0.01036726,0.005707227,0.0636347,0,0,0,0,0,0,0,,,,
2300,-0.01036726,0.005707227,0.0636347,0,0,0,0,0,0,0,,,,
2305,-0.01036726,0.005707227,0.0636347,0,0,0,0,0,0,0,,,,
2310,-0.01036726,0.005707227,0.0636347,0,0,0,0,0,0,0,,,,
2315,-0.01036726,0.005707227,0.0636347,0,0,0,0,0,0,0,,,,
2320,-0.01036726,0.005707227,0.0636347,0,0,0,0,0,0,0,,,,
2325,-0.01036726,0.005707227,0.0636347,0,0,0,0,0,0,0,,,,
2330,-0.01036726,0.005707227,0.0636347,0,0,0,0,0,0,0,,,,
2335,-0.01036726,0.005707227,0.0636347,0,0,0,0,0,0,0,,,,
2340,-0.01036726,0.005707227,0.0636347,0,0,0,0,0,0,0,,,,
2345,-0.0103498,0.005689773,0.06366961,0,0,0,0,0,0,0,,,,
2350,-0.0103498,0.005689773,0.06366961,0,0,0,0,0,0,0,,,,
2356,-0.0103498,0.005689773,0.06366961,0,0,0,0,0,0,0,,,,
2360,-0.0103498,0.005689773,0.06366961,0,0,0,0,0,0,0,,,,
2365,-0.0103498,0.005689773,0.06366961,0,0,0,0,0,0,0,,,,
2370,-0.0103498,0.005689773,0.06366961,0,0,0,0,0,0,0,,,,
2375,-0.0103498,0.005689773,0.06366961,0,0,0,0,0,0,0,,,,
2380,-0.0103498,0.005689773,0.06366961,0,0,0,0,0,0,0,,,,
2385,-0.0103498,0.005689773,0.06366961,0,0,0,0,0,0,0,,,,
2390,-0.0103498,0.005689773,0.06366961,0,0,0,0,0,0,0,,,,
2395,-0.0103498,0.005689773,0.06366961,0,0,0,0,0,0,0,,,,
2400,-0.0103498,0.005689773,0.06366961,0,0,0,0,0,0,0,,,,
2405,-0.0103498,0.005689773,0.06366961,0,0,0,0,0,0,0,,,,
2410,-0.01041962,0.005829399,0.06375688,0,0,0,0,0,0,0,,,,
2415,-0.01041962,0.005829399,0.06375688,0,0,0,0,0,0,0,,,,
2420,-0.01041962,0.005829399,0.06375688,0,0,0,0,0,0,0,,,,
2425,-0.01041962,0.005829399,0.06375688,0,0,0,0,0,0,0,,,,
2430,-0.01041962,0.005829399,0.06375688,0,0,0,0,0,0,0,,,,
2435,-0.01041962,0.005829399,0.06375688,0,0,0,0,0,0,0,,,,
2440,-0.01041962,0.005829399,0.06375688,0,0,0,0,0,0,0,,,,
2445,-0.01041962,0.005829399,0.06375688,0,0,0,0,0,0,0,,,,
2450,-0.01041962,0.005829399,0.06375688,0,0,0,0,0,0,0,,,,
2455,-0.01041962,0.005829399,0.06375688,0,0,0,0,0,0,0,,,,
2460,-0.01041962,0.005829399,0.06375688,0,0,0,0,0,0,0,,,,
2465,-0.01041962,0.005829399,0.06375688,0,0,0,0,0,0,0,,,,
2470,-0.01041962,0.005829399,0.06375688,0,0,0,0,0,0,0,,,,
2475,-0.01048943,0.005829399,0.06380924,0,0,0,0,0,0,0,,,,
2480,-0.01048943,0.005829399,0.06380924,0,0,0,0,0,0,0,,,,
2485,-0.01048943,0.005829399,0.06380924,0,0,0,0,0,0,0,,,,
2490,-0.01048943,0.005829399,0.06380924,0,0,0,0,0,0,0,,,,
2495,-0.01048943,0.005829399,0.06380924,0,0,0,0,0,0,0,,,,
2500,-0.01048943,0.005829399,0.06380924,0,0,0,0,0,0,0,,,,
2505,-0.01048943,0.005829399,0.06380924,0,0,0,0,0,0,0,,,,
2510,-0.01048943,0.005829399,0.06380924,0,0,0,0,0,0,0,,,,
2515,-0.01048943,0.005829399,0.06380924,0,0,0,0,0,0,0,,,,
2520,-0.01048943,0.005829399,0.06380924,0,0,0,0,0,0,0,,,,
2525,-0.01048943,0.005829399,0.06380924,0,0,0,0,0,0,0,,,,
2530,-0.01048943,0.005829399,0.06380924,0,0,0,0,0,0,0,,,,
2536,-0.01048943,0.005829399,0.06380924,0,0,0,0,0,0,0,,,,
2540,-0.0105767,0.005846853,0.06387905,0,0,0,0,0,0,0,,,,
2545,-0.0105767,0.005846853,0.06387905,0,0,0,0,0,0,0,,,,
2550,-0.0105767,0.005846853,0.06387905,0,0,0,0,0,0,0,,,,
2555,-0.0105767,0.005846853,0.06387905,0,0,0,0,0,0,0,,,,
2560,-0.0105767,0.005846853,0.06387905,0,0,0,0,0,0,0,,,,
2565,-0.0105767,0.005846853,0.06387905,0,0,0,0,0,0,0,,,,
2570,-0.0105767,0.005846853,0.06387905,0,0,0,0,0,0,0,,,,
2575,-0.0105767,0.005846853,0.06387905,0,0,0,0,0,0,0,,,,
2580,-0.0105767,0.005846853,0.06387905,0,0,0,0,0,0,0,,,,
2585,-0.0105767,0.005846853,0.06387905,0,0,0,0,0,0,0,,,,
2590,-0.0105767,0.005846853,0.06387905,0,0,0,0,0,0,0,,,,
2597,-0.0105767,0.005846853,0.06387905,0,0,0,0,0,0,0,,,,
2603,-0.0106116,0.005689773,0.06391396,0,0,0,0,0,0,0,,,,
2608,-0.0106116,0.005689773,0.06391396,0,0,0,0,0,0,0,,,,
2613,-0.0106116,0.005689773,0.06391396,0,0,0,0,0,0,0,,,,
2618,-0.0106116,0.005689773,0.06391396,0,0,0,0,0,0,0,,,,
2623,-0.0106116,0.005689773,0.06391396,0,0,0,0,0,0,0,,,,
2628,-0.0106116,0.005689773,0.06391396,0,0,0,0,0,0,0,,,,
2633,-0.0106116,0.005689773,0.06391396,0,0,0,0,0,0,0,,,,
2638,-0.0106116,0.005689773,0.06391396,0,0,0,0,0,0,0,,,,
2643,-0.0106116,0.005689773,0.06391396,0,0,0,0,0,0,0,,,,
2648,-0.0106116,0.005689773,0.06391396,0,0,0,0,0,0,0,,,,
2653,-0.0106116,0.005689773,0.06391396,0,0,0,0,0,0,0,,,,
2658,-0.0106116,0.005689773,0.06391396,0,0,0,0,0,0,0,,,,
2663,-0.0106116,0.005689773,0.06391396,0,0,0,0,0,0,0,,,,
2668,-0.01064651,0.005689773,0.06401867,0,0,0,0,0,0,0,,,,
2673,-0.01064651,0.005689773,0.06401867,0,0,0,0,0,0,0,,,,
2679,-0.01064651,0.005689773,0.06401867,0,0,0,0,0,0,0,,,,
2683,-0.01064651,0.005689773,0.06401867,0,0,0,0,0,0,0,,,,
2688,-0.01064651,0.005689773,0.06401867,0,0,0,0,0,0,0,,,,
2693,-0.01064651,0.005689773,0.06401867,0,0,0,0,0,0,0,,,,
2698,-0.01064651,0.005689773,0.06401867,0,0,0,0,0,0,0,,,,
2703,-0.01064651,0.005689773,0.06401867,0,0,0,0,0,0,0,,,,
2708,-0.01064651,0.005689773,0.06401867,0,0,0,0,0,0,0,,,,
2713,-0.01064651,0.005689773,0.06401867,0,0,0,0,0,0,0,,,,
2718,-0.01064651,0.005689773,0.06401867,0,0,0,0,0,0,0,,,,
2723,-0.01064651,0.005689773,0.06401867,0,0,0,0,0,0,0,,,,
2728,-0.01064651,0.005689773,0.06401867,0,0,0,0,0,0,0,,,,
2733,-0.01062906,0.00567232,0.06410594,0,0,0,0,0,0,0,,,,
2738,-0.01062906,0.00567232,0.06410594,0,0,0,0,0,0,0,,,,
2743,-0.01062906,0.00567232,0.06410594,0,0,0,0,0,0,0,,,,
2748,-0.01062906,0.00567232,0.06410594,0,0,0,0,0,0,0,,,,
2753,-0.01062906,0.00567232,0.06410594,0,0,0,0,0,0,0,,,,
2758,-0.01062906,0.00567232,0.06410594,0,0,0,0,0,0,0,,,,
2763,-0.01062906,0.00567232,0.06410594,0,0,0,0,0,0,0,,,,
2768,-0.01062906,0.00567232,0.06410594,0,0,0,0,0,0,0,,,,
2773,-0.01062906,0.00567232,0.06410594,0,0,0,0,0,0,0,,,,
2778,-0.01062906,0.00567232,0.06410594,0,0,0,0,0,0,0,,,,
2783,-0.01062906,0.00567232,0.06410594,0,0,0,0,0,0,0,,,,
2788,-0.01062906,0.00567232,0.06410594,0,0,0,0,0,0,0,,,,
2793,-0.01062906,0.00567232,0.06410594,0,0,0,0,0,0,0,,,,
2798,0,1.75E-05,0.06414085,0,0,0,0,0,0,0,,,,
2803,0,1.75E-05,0.06414085,0,0,0,0,0,0,0,,,,
2808,0,1.75E-05,0.06414085,0,0,0,0,0,0,0,,,,
2813,0,1.75E-05,0.06414085,0,0,0,0,0,0,0,,,,
2819,0,1.75E-05,0.06414085,0,0,0,0,0,0,0,,,,
2825,0,1.75E-05,0.06414085,0,0,0,0,0,0,0,,,,
2829,0,1.75E-05,0.06414085,0,0,0,0,0,0,0,,,,
2834,0,1.75E-05,0.06414085,0,0,0,0,0,0,0,,,,
2839,0,1.75E-05,0.06414085,0,0,0,0,0,0,0,,,,
2844,0,1.75E-05,0.06414085,0,0,0,0,0,0,0,,,,
2849,0,1.75E-05,0.06414085,0,0,0,0,0,0,0,,,,
2854,0,1.75E-05,0.06414085,0,0,0,0,0,0,0,,,,
2859,0,1.75E-05,0.06414085,0,0,0,0,0,0,0,,,,
2864,8.73E-05,0,0.06421066,0,0,0,0,0,0,0,,,,
2869,8.73E-05,0,0.06421066,0,0,0,0,0,0,0,,,,
2874,8.73E-05,0,0.06421066,0,0,0,0,0,0,0,,,,
2879,8.73E-05,0,0.06421066,0,0,0,0,0,0,0,,,,
2884,8.73E-05,0,0.06421066,0,0,0,0,0,0,0,,,,
2889,8.73E-05,0,0.06421066,0,0,0,0,0,0,0,,,,
2894,8.73E-05,0,0.06421066,0,0,0,0,0,0,0,,,,
2899,8.73E-05,0,0.06421066,0,0,0,0,0,0,0,,,,
2904,8.73E-05,0,0.06421066,0,0,0,0,0,0,0,,,,
2909,8.73E-05,0,0.06421066,0,0,0,0,0,0,0,,,,
2914,8.73E-05,0,0.06421066,0,0,0,0,0,0,0,,,,
2919,8.73E-05,0,0.06421066,0,0,0,0,0,0,0,,,,
2924,8.73E-05,0,0.06421066,0,0,0,0,0,0,0,,,,
2929,8.73E-05,0,0.06421066,0,0,0,0,0,0,0,,,,
2934,0.00015708,0,0.06426302,0,0,0,0,0,0,0,,,,
2939,0.00015708,0,0.06426302,0,0,0,0,0,0,0,,,,
2944,0.00015708,0,0.06426302,0,0,0,0,0,0,0,,,,
2949,0.00015708,0,0.06426302,0,0,0,0,0,0,0,,,,
2954,0.00015708,0,0.06426302,0,0,0,0,0,0,0,,,,
2959,0.00015708,0,0.06426302,0,0,0,0,0,0,0,,,,
2964,0.00015708,0,0.06426302,0,0,0,0,0,0,0,,,,
2969,0.00015708,0,0.06426302,0,0,0,0,0,0,0,,,,
2974,0.00015708,0,0.06426302,0,0,0,0,0,0,0,,,,
2979,0.00015708,0,0.06426302,0,0,0,0,0,0,0,,,,
2984,0.00015708,0,0.06426302,0,0,0,0,0,0,0,,,,
2989,0.00015708,0,0.06426302,0,0,0,0,0,0,0,,,,
2994,0.00015708,0,0.06426302,0,0,0,0,0,0,0,,,,
2999,0.000226893,-3.49E-05,0.06431538,0,0,0,0,0,0,0,,,,
3004,0.000226893,-3.49E-05,0.06431538,0,0,0,0,0,0,0,,,,
3009,0.000226893,-3.49E-05,0.06431538,0,0,0,0,0,0,0,,,,
3014,0.000226893,-3.49E-05,0.06431538,0,0,0,0,0,0,0,,,,
3019,0.000226893,-3.49E-05,0.06431538,0,0,0,0,0,0,0,,,,
3024,0.000226893,-3.49E-05,0.06431538,0,0,0,0,0,0,0,,,,
3029,0.000226893,-3.49E-05,0.06431538,0,0,0,0,0,0,0,,,,
3034,0.000226893,-3.49E-05,0.06431538,0,0,0,0,0,0,0,,,,
3039,0.000226893,-3.49E-05,0.06431538,0,0,0,0,0,0,0,,,,
3044,0.000226893,-3.49E-05,0.06431538,0,0,0,0,0,0,0,,,,
3049,0.000226893,-3.49E-05,0.06431538,0,0,0,0,0,0,0,,,,
3054,0.000226893,-3.49E-05,0.06431538,0,0,0,0,0,0,0,,,,
3059,0.00020944,-8.73E-05,0.06438519,0,0,0,0,0,0,0,,,,
3064,0.00020944,-8.73E-05,0.06438519,0,0,0,0,0,0,0,,,,
3069,0.00020944,-8.73E-05,0.06438519,0,0,0,0,0,0,0,,,,
3074,0.00020944,-8.73E-05,0.06438519,0,0,0,0,0,0,0,,,,
3079,0.00020944,-8.73E-05,0.06438519,0,0,0,0,0,0,0,,,,
3084,0.00020944,-8.73E-05,0.06438519,0,0,0,0,0,0,0,,,,
3089,0.00020944,-8.73E-05,0.06438519,0,0,0,0,0,0,0,,,,
3094,0.00020944,-8.73E-05,0.06438519,0,0,0,0,0,0,0,,,,
3099,0.00020944,-8.73E-05,0.06438519,0,0,0,0,0,0,0,,,,
3109,0.00020944,-8.73E-05,0.06438519,0,0,0,0,0,0,0,,,,
3114,0.00020944,-8.73E-05,0.06438519,0,0,0,0,0,0,0,,,,
3119,0.00020944,-8.73E-05,0.06438519,0,0,0,0,0,0,0,,,,
3124,0.000226893,-0.000139626,0.06443755,0,0,0,0,0,0,0,,,,
3129,0.000226893,-0.000139626,0.06443755,0,0,0,0,0,0,0,,,,
3134,0.000226893,-0.000139626,0.06443755,0,0,0,0,0,0,0,,,,
3139,0.000226893,-0.000139626,0.06443755,0,0,0,0,0,0,0,,,,
3144,0.000226893,-0.000139626,0.06443755,0,0,0,0,0,0,0,,,,
3149,0.000226893,-0.000139626,0.06443755,0,0,0,0,0,0,0,,,,
3154,0.000226893,-0.000139626,0.06443755,0,0,0,0,0,0,0,,,,
3159,0.000226893,-0.000139626,0.06443755,0,0,0,0,0,0,0,,,,
3164,0.000226893,-0.000139626,0.06443755,0,0,0,0,0,0,0,,,,
3169,0.000226893,-0.000139626,0.06443755,0,0,0,0,0,0,0,,,,
3174,0.000226893,-0.000139626,0.06443755,0,0,0,0,0,0,0,,,,
3179,0.000226893,-0.000139626,0.06443755,0,0,0,0,0,0,0,,,,
3184,0.000226893,-0.000139626,0.06443755,0,0,0,0,0,0,0,,,,
3189,0.000296706,-0.000139626,0.06448992,0,0,0,0,0,0,0,,,,
3194,0.000296706,-0.000139626,0.06448992,0,0,0,0,0,0,0,,,,
3199,0.000296706,-0.000139626,0.06448992,0,0,0,0,0,0,0,,,,
3204,0.000296706,-0.000139626,0.06448992,0,0,0,0,0,0,0,,,,
3209,0.000296706,-0.000139626,0.06448992,0,0,0,0,0,0,0,,,,
3214,0.000296706,-0.000139626,0.06448992,0,0,0,0,0,0,0,,,,
3219,0.000296706,-0.000139626,0.06448992,0,0,0,0,0,0,0,,,,
3224,0.000296706,-0.000139626,0.06448992,0,0,0,0,0,0,0,,,,
3229,0.000296706,-0.000139626,0.06448992,0,0,0,0,0,0,0,,,,
3234,0.000296706,-0.000139626,0.06448992,0,0,0,0,0,0,0,,,,
3239,0.000296706,-0.000139626,0.06448992,0,0,0,0,0,0,0,,,,
3244,0.000296706,-0.000139626,0.06448992,0,0,0,0,0,0,0,,,,
3249,0.000296706,-0.000139626,0.06448992,0,0,0,0,0,0,0,,,,
3254,0.000436332,-0.000261799,0.06455973,0,0,0,0,0,0,0,,,,
3259,0.000436332,-0.000261799,0.06455973,0,0,0,0,0,0,0,,,,
3264,0.000436332,-0.000261799,0.06455973,0,0,0,0,0,0,0,,,,
3269,0.000436332,-0.000261799,0.06455973,0,0,0,0,0,0,0,,,,
3274,0.000436332,-0.000261799,0.06455973,0,0,0,0,0,0,0,,,,
3279,0.000436332,-0.000261799,0.06455973,0,0,0,0,0,0,0,,,,
3284,0.000436332,-0.000261799,0.06455973,0,0,0,0,0,0,0,,,,
3289,0.000436332,-0.000261799,0.06455973,0,0,0,0,0,0,0,,,,
3294,0.000436332,-0.000261799,0.06455973,0,0,0,0,0,0,0,,,,
3299,0.000436332,-0.000261799,0.06455973,0,0,0,0,0,0,0,,,,
3304,0.000436332,-0.000261799,0.06455973,0,0,0,0,0,0,0,,,,
3309,0.000436332,-0.000261799,0.06455973,0,0,0,0,0,0,0,,,,
3314,0.000436332,-0.000261799,0.06455973,0,0,0,0,0,0,0,,,,
3319,0.000645772,-0.000331613,0.06459463,0,0,0,0,0,0,0,,,,
3324,0.000645772,-0.000331613,0.06459463,0,0,0,0,0,0,0,,,,
3329,0.000645772,-0.000331613,0.06459463,0,0,0,0,0,0,0,,,,
3334,0.000645772,-0.000331613,0.06459463,0,0,0,0,0,0,0,,,,
3339,0.000645772,-0.000331613,0.06459463,0,0,0,0,0,0,0,,,,
3344,0.000645772,-0.000331613,0.06459463,0,0,0,0,0,0,0,,,,
3349,0.000645772,-0.000331613,0.06459463,0,0,0,0,0,0,0,,,,
3354,0.000645772,-0.000331613,0.06459463,0,0,0,0,0,0,0,,,,
3359,0.000645772,-0.000331613,0.06459463,0,0,0,0,0,0,0,,,,
3364,0.000645772,-0.000331613,0.06459463,0,0,0,0,0,0,0,,,,
3369,0.000645772,-0.000331613,0.06459463,0,0,0,0,0,0,0,,,,
3376,0.000645772,-0.000331613,0.06459463,0,0,0,0,0,0,0,,,,
3383,0.000680678,-0.000366519,0.06462954,0,0,0,0,0,0,0,,,,
3388,0.000680678,-0.000366519,0.06462954,0,0,0,0,0,0,0,,,,
3393,0.000680678,-0.000366519,0.06462954,0,0,0,0,0,0,0,,,,
3398,0.000680678,-0.000366519,0.06462954,0,0,0,0,0,0,0,,,,
3403,0.000680678,-0.000366519,0.06462954,0,0,0,0,0,0,0,,,,
3408,0.000680678,-0.000366519,0.06462954,0,0,0,0,0,0,0,,,,
3413,0.000680678,-0.000366519,0.06462954,0,0,0,0,0,0,0,,,,
3418,0.000680678,-0.000366519,0.06462954,0,0,0,0,0,0,0,,,,
3423,0.000680678,-0.000366519,0.06462954,0,0,0,0,0,0,0,,,,
3428,0.000680678,-0.000366519,0.06462954,0,0,0,0,0,0,0,,,,
3433,0.000680678,-0.000366519,0.06462954,0,0,0,0,0,0,0,,,,
3438,0.000680678,-0.000366519,0.06462954,0,0,0,0,0,0,0,,,,
3443,0.000680678,-0.000366519,0.06462954,0,0,0,0,0,0,0,,,,
3448,0.000680678,-0.000366519,0.06462954,0,0,0,0,0,0,0,,,,
3453,0.000715585,-0.000383972,0.06469935,0,0,0,0,0,0,0,,,,
3458,0.000715585,-0.000383972,0.06469935,0,0,0,0,0,0,0,,,,
3463,0.000715585,-0.000383972,0.06469935,0,0,0,0,0,0,0,,,,
3468,0.000715585,-0.000383972,0.06469935,0,0,0,0,0,0,0,,,,
3473,0.000715585,-0.000383972,0.06469935,0,0,0,0,0,0,0,,,,
3478,0.000715585,-0.000383972,0.06469935,0,0,0,0,0,0,0,,,,
3483,0.000715585,-0.000383972,0.06469935,0,0,0,0,0,0,0,,,,
3488,0.000715585,-0.000383972,0.06469935,0,0,0,0,0,0,0,,,,
3493,0.000715585,-0.000383972,0.06469935,0,0,0,0,0,0,0,,,,
3499,0.000715585,-0.000383972,0.06469935,0,0,0,0,0,0,0,,,,
3503,0.000715585,-0.000383972,0.06469935,0,0,0,0,0,0,0,,,,
3508,0.000715585,-0.000383972,0.06469935,0,0,0,0,0,0,0,,,,
3513,0.000663225,-0.000401426,0.06476916,0,0,0,0,0,0,0,,,,
3518,0.000663225,-0.000401426,0.06476916,0,0,0,0,0,0,0,,,,
3523,0.000663225,-0.000401426,0.06476916,0,0,0,0,0,0,0,,,,
3528,0.000663225,-0.000401426,0.06476916,0,0,0,0,0,0,0,,,,
3533,0.000663225,-0.000401426,0.06476916,0,0,0,0,0,0,0,,,,
3538,0.000663225,-0.000401426,0.06476916,0,0,0,0,0,0,0,,,,
3543,0.000663225,-0.000401426,0.06476916,0,0,0,0,0,0,0,,,,
3548,0.000663225,-0.000401426,0.06476916,0,0,0,0,0,0,0,,,,
3553,0.000663225,-0.000401426,0.06476916,0,0,0,0,0,0,0,,,,
3558,0.000663225,-0.000401426,0.06476916,0,0,0,0,0,0,0,,,,
3563,0.000663225,-0.000401426,0.06476916,0,0,0,0,0,0,0,,,,
3568,0.000663225,-0.000401426,0.06476916,0,0,0,0,0,0,0,,,,
3573,0.000663225,-0.000401426,0.06476916,0,0,0,0,0,0,0,,,,
3578,0.000610865,-0.000453786,0.06483898,0,0,0,0,0,0,0,,,,
3583,0.000610865,-0.000453786,0.06483898,0,0,0,0,0,0,0,,,,
3588,0.000610865,-0.000453786,0.06483898,0,0,0,0,0,0,0,,,,
3593,0.000610865,-0.000453786,0.06483898,0,0,0,0,0,0,0,,,,
3598,0.000610865,-0.000453786,0.06483898,0,0,0,0,0,0,0,,,,
3603,0.000610865,-0.000453786,0.06483898,0,0,0,0,0,0,0,,,,
3608,0.000610865,-0.000453786,0.06483898,0,0,0,0,0,0,0,,,,
3613,0.000610865,-0.000453786,0.06483898,0,0,0,0,0,0,0,,,,
3618,0.000610865,-0.000453786,0.06483898,0,0,0,0,0,0,0,,,,
3623,0.000610865,-0.000453786,0.06483898,0,0,0,0,0,0,0,,,,
3628,0.000610865,-0.000453786,0.06483898,0,0,0,0,0,0,0,,,,
3633,0.000610865,-0.000453786,0.06483898,0,0,0,0,0,0,0,,,,
3638,0.000610865,-0.000453786,0.06483898,0,0,0,0,0,0,0,,,,
3643,0.000401426,-0.000418879,0.06485643,0,0,0,0,0,0,0,,,,
3648,0.000401426,-0.000418879,0.06485643,0,0,0,0,0,0,0,,,,
3653,0.000401426,-0.000418879,0.06485643,0,0,0,0,0,0,0,,,,
3658,0.000401426,-0.000418879,0.06485643,0,0,0,0,0,0,0,,,,
3663,0.000401426,-0.000418879,0.06485643,0,0,0,0,0,0,0,,,,
3668,0.000401426,-0.000418879,0.06485643,0,0,0,0,0,0,0,,,,
3673,0.000401426,-0.000418879,0.06485643,0,0,0,0,0,0,0,,,,
3678,0.000401426,-0.000418879,0.06485643,0,0,0,0,0,0,0,,,,
3683,0.000401426,-0.000418879,0.06485643,0,0,0,0,0,0,0,,,,
3688,0.000401426,-0.000418879,0.06485643,0,0,0,0,0,0,0,,,,
3693,0.000401426,-0.000418879,0.06485643,0,0,0,0,0,0,0,,,,
3698,0.000401426,-0.000418879,0.06485643,0,0,0,0,0,0,0,,,,
3704,0.000401426,-0.000418879,0.06485643,0,0,0,0,0,0,0,,,,
3709,0.000349066,0.001553343,0.06487389,0,0,0,0,0,0,0,,,,
3714,0.000349066,0.001553343,0.06487389,0,0,0,0,0,0,0,,,,
3720,0.000349066,0.001553343,0.06487389,0,0,0,0,0,0,0,,,,
3725,0.000349066,0.001553343,0.06487389,0,0,0,0,0,0,0,,,,
3730,0.000349066,0.001553343,0.06487389,0,0,0,0,0,0,0,,,,
3735,0.000349066,0.001553343,0.06487389,0,0,0,0,0,0,0,,,,
3740,0.000349066,0.001553343,0.06487389,0,0,0,0,0,0,0,,,,
3745,0.000349066,0.001553343,0.06487389,0,0,0,0,0,0,0,,,,
3750,0.000349066,0.001553343,0.06487389,0,0,0,0,0,0,0,,,,
3755,0.000349066,0.001553343,0.06487389,0,0,0,0,0,0,0,,,,
3760,0.000349066,0.001553343,0.06487389,0,0,0,0,0,0,0,,,,
3765,0.000349066,0.001553343,0.06487389,0,0,0,0,0,0,0,,,,
3770,0.000349066,0.001553343,0.06487389,0,0,0,0,0,0,0,,,,
3775,-0.001082104,-0.001518436,0.06414085,0,0,0,0,0,0,0,,,,
3780,-0.001082104,-0.001518436,0.06414085,0,0,0,0,0,0,0,,,,
3785,-0.001082104,-0.001518436,0.06414085,0,0,0,0,0,0,0,,,,
3790,-0.001082104,-0.001518436,0.06414085,0,0,0,0,0,0,0,,,,
3796,-0.001082104,-0.001518436,0.06414085,0,0,0,0,0,0,0,,,,
3801,-0.001082104,-0.001518436,0.06414085,0,0,0,0,0,0,0,,,,
3806,-0.001082104,-0.001518436,0.06414085,0,0,0,0,0,0,0,,,,
3811,-0.001082104,-0.001518436,0.06414085,0,0,0,0,0,0,0,,,,
3816,-0.001082104,-0.001518436,0.06414085,0,0,0,0,0,0,0,,,,
3821,-0.001082104,-0.001518436,0.06414085,0,0,0,0,0,0,0,,,,
3826,-0.001082104,-0.001518436,0.06414085,0,0,0,0,0,0,0,,,,
3831,-0.001082104,-0.001518436,0.06414085,0,0,0,0,0,0,0,,,,
3836,-0.001082104,-0.001518436,0.06414085,0,0,0,0,0,0,0,,,,
3841,-0.005742133,-0.003316126,0.0654673,0,0,0,0,0,0,0,,,,
3846,-0.005742133,-0.003316126,0.0654673,0,0,0,0,0,0,0,,,,
3851,-0.005742133,-0.003316126,0.0654673,0,0,0,0,0,0,0,,,,
3856,-0.005742133,-0.003316126,0.0654673,0,0,0,0,0,0,0,,,,
3861,-0.005742133,-0.003316126,0.0654673,0,0,0,0,0,0,0,,,,
3866,-0.005742133,-0.003316126,0.0654673,0,0,0,0,0,0,0,,,,
3871,-0.005742133,-0.003316126,0.0654673,0,0,0,0,0,0,0,,,,
3876,-0.005742133,-0.003316126,0.0654673,0,0,0,0,0,0,0,,,,
3881,-0.005742133,-0.003316126,0.0654673,0,0,0,0,0,0,0,,,,
3886,-0.005742133,-0.003316126,0.0654673,0,0,0,0,0,0,0,,,,
3891,-0.005742133,-0.003316126,0.0654673,0,0,0,0,0,0,0,,,,
3896,-0.005742133,-0.003316126,0.0654673,0,0,0,0,0,0,0,,,,
3901,-0.005742133,-0.003316126,0.0654673,0,0,0,0,0,0,0,,,,
3906,-0.01450369,0.01398009,0.05461135,0,0,0,0,0,0,0,,,,
3911,-0.01450369,0.01398009,0.05461135,0,0,0,0,0,0,0,,,,
3916,-0.01450369,0.01398009,0.05461135,0,0,0,0,0,0,0,,,,
3921,-0.01450369,0.01398009,0.05461135,0,0,0,0,0,0,0,,,,
3926,-0.01450369,0.01398009,0.05461135,0,0,0,0,0,0,0,,,,
3931,-0.01450369,0.01398009,0.05461135,0,0,0,0,0,0,0,,,,
3937,-0.01450369,0.01398009,0.05461135,0,0,0,0,0,0,0,,,,
3942,-0.01450369,0.01398009,0.05461135,0,0,0,0,0,0,0,,,,
3947,-0.01450369,0.01398009,0.05461135,0,0,0,0,0,0,0,,,,
3952,-0.01450369,0.01398009,0.05461135,0,0,0,0,0,0,0,,,,
3957,-0.01450369,0.01398009,0.05461135,0,0,0,0,0,0,0,,,,
3962,-0.01450369,0.01398009,0.05461135,0,0,0,0,0,0,0,,,,
3967,-0.01450369,0.01398009,0.05461135,0,0,0,0,0,0,0,,,,
3972,0.008779006,0.09255481,0.0392001,0,0,0,0,0,0,0,,,,
3977,0.008779006,0.09255481,0.0392001,0,0,0,0,0,0,0,,,,
3982,0.008779006,0.09255481,0.0392001,0,0,0,0,0,0,0,,,,
3987,0.008779006,0.09255481,0.0392001,0,0,0,0,0,0,0,,,,
3992,0.008779006,0.09255481,0.0392001,0,0,0,0,0,0,0,,,,
3997,0.008779006,0.09255481,0.0392001,0,0,0,0,0,0,0,,,,
4002,0.008779006,0.09255481,0.0392001,0,0,0,0,0,0,0,,,,
4007,0.008779006,0.09255481,0.0392001,0,0,0,0,0,0,0,,,,
4012,0.008779006,0.09255481,0.0392001,0,0,0,0,0,0,0,,,,
4017,0.008779006,0.09255481,0.0392001,0,0,0,0,0,0,0,,,,
4022,0.008779006,0.09255481,0.0392001,0,0,0,0,0,0,0,,,,
4027,0.008779006,0.09255481,0.0392001,0,0,0,0,0,0,0,,,,
4032,0.008779006,0.09255481,0.0392001,0,0,0,0,0,0,0,,,,
4037,0.03186971,0.1551947,0.02600541,0,0,0,0,0,0,0,,,,
4042,0.03186971,0.1551947,0.02600541,0,0,0,0,0,0,0,,,,
4047,0.03186971,0.1551947,0.02600541,0,0,0,0,0,0,0,,,,
4052,0.03186971,0.1551947,0.02600541,0,0,0,0,0,0,0,,,,
4057,0.03186971,0.1551947,0.02600541,0,0,0,0,0,0,0,,,,
4062,0.03186971,0.1551947,0.02600541,0,0,0,0,0,0,0,,,,
4067,0.03186971,0.1551947,0.02600541,0,0,0,0,0,0,0,,,,
4072,0.03186971,0.1551947,0.02600541,0,0,0,0,0,0,0,,,,
4077,0.03186971,0.1551947,0.02600541,0,0,0,0,0,0,0,,,,
4082,0.03186971,0.1551947,0.02600541,0,0,0,0,0,0,0,,,,
4087,0.03186971,0.1551947,0.02600541,0,0,0,0,0,0,0,,,,
4092,0.03186971,0.1551947,0.02600541,0,0,0,0,0,0,0,,,,
4097,0.03186971,0.1551947,0.02600541,0,0,0,0,0,0,0,,,,
4102,0.05099852,0.22794,0.01947788,0,0,0,0,0,0,0,,,,
4107,0.05099852,0.22794,0.01947788,0,0,0,0,0,0,0,,,,
4112,0.05099852,0.22794,0.01947788,0,0,0,0,0,0,0,,,,
4117,0.05099852,0.22794,0.01947788,0,0,0,0,0,0,0,,,,
4122,0.05099852,0.22794,0.01947788,0,0,0,0,0,0,0,,,,
4127,0.05099852,0.22794,0.01947788,0,0,0,0,0,0,0,,,,
4132,0.05099852,0.22794,0.01947788,0,0,0,0,0,0,0,,,,
4137,0.05099852,0.22794,0.01947788,0,0,0,0,0,0,0,,,,
4142,0.05099852,0.22794,0.01947788,0,0,0,0,0,0,0,,,,
4147,0.05099852,0.22794,0.01947788,0,0,0,0,0,0,0,,,,
4152,0.05099852,0.22794,0.01947788,0,0,0,0,0,0,0,,,,
4157,0.05099852,0.22794,0.01947788,0,0,0,0,0,0,0,,,,
4162,0.05099852,0.22794,0.01947788,0,0,0,0,0,0,0,,,,
4167,0.08122762,0.3024132,0.02682571,0,0,0,0,0,0,0,,,,
4172,0.08122762,0.3024132,0.02682571,0,0,0,0,0,0,0,,,,
4177,0.08122762,0.3024132,0.02682571,0,0,0,0,0,0,0,,,,
4182,0.08122762,0.3024132,0.02682571,0,0,0,0,0,0,0,,,,
4187,0.08122762,0.3024132,0.02682571,0,0,0,0,0,0,0,,,,
4192,0.08122762,0.3024132,0.02682571,0,0,0,0,0,0,0,,,,
4197,0.08122762,0.3024132,0.02682571,0,0,0,0,0,0,0,,,,
4202,0.08122762,0.3024132,0.02682571,0,0,0,0,0,0,0,,,,
4207,0.08122762,0.3024132,0.02682571,0,0,0,0,0,0,0,,,,
4212,0.08122762,0.3024132,0.02682571,0,0,0,0,0,0,0,,,,
4217,0.08122762,0.3024132,0.02682571,0,0,0,0,0,0,0,,,,
4222,0.08122762,0.3024132,0.02682571,0,0,0,0,0,0,0,,,,
4227,0.08122762,0.3024132,0.02682571,0,0,0,0,0,0,0,,,,
4232,0.1019272,0.3651403,0.04530875,0,0,0,0,0,0,0,,,,
4237,0.1019272,0.3651403,0.04530875,0,0,0,0,0,0,0,,,,
4242,0.1019272,0.3651403,0.04530875,0,0,0,0,0,0,0,,,,
4247,0.1019272,0.3651403,0.04530875,0,0,0,0,0,0,0,,,,
4252,0.1019272,0.3651403,0.04530875,0,0,0,0,0,0,0,,,,
4257,0.1019272,0.3651403,0.04530875,0,0,0,0,0,0,0,,,,
4262,0.1019272,0.3651403,0.04530875,0,0,0,0,0,0,0,,,,
4267,0.1019272,0.3651403,0.04530875,0,0,0,0,0,0,0,,,,
4272,0.1019272,0.3651403,0.04530875,0,0,0,0,0,0,0,,,,
4277,0.1019272,0.3651403,0.04530875,0,0,0,0,0,0,0,,,,
4282,0.1019272,0.3651403,0.04530875,0,0,0,0,0,0,0,,,,
4287,0.1019272,0.3651403,0.04530875,0,0,0,0,0,0,0,,,,
4293,0.1019272,0.3651403,0.04530875,0,0,0,0,0,0,0,,,,
4297,0.1231504,0.4102571,0.05976008,0,0,0,0,0,0,0,,,,
4302,0.1231504,0.4102571,0.05976008,0,0,0,0,0,0,0,,,,
4307,0.1231504,0.4102571,0.05976008,0,0,0,0,0,0,0,,,,
4312,0.1231504,0.4102571,0.05976008,0,0,0,0,0,0,0,,,,
4317,0.1231504,0.4102571,0.05976008,0,0,0,0,0,0,0,,,,
4323,0.1231504,0.4102571,0.05976008,0,0,0,0,0,0,0,,,,
4327,0.1231504,0.4102571,0.05976008,0,0,0,0,0,0,0,,,,
4332,0.1231504,0.4102571,0.05976008,0,0,0,0,0,0,0,,,,
4337,0.1231504,0.4102571,0.05976008,0,0,0,0,0,0,0,,,,
4342,0.1231504,0.4102571,0.05976008,0,0,0,0,0,0,0,,,,
4347,0.1231504,0.4102571,0.05976008,0,0,0,0,0,0,0,,,,
4352,0.1231504,0.4102571,0.05976008,0,0,0,0,0,0,0,,,,
4357,0.1231504,0.4102571,0.05976008,0,0,0,0,0,0,0,,,,
4362,0.1342158,0.4294208,0.05448918,0,0,0,0,0,0,0,,,,
4367,0.1342158,0.4294208,0.05448918,0,0,0,0,0,0,0,,,,
4372,0.1342158,0.4294208,0.05448918,0,0,0,0,0,0,0,,,,
4377,0.1342158,0.4294208,0.05448918,0,0,0,0,0,0,0,,,,
4382,0.1342158,0.4294208,0.05448918,0,0,0,0,0,0,0,,,,
4388,0.1342158,0.4294208,0.05448918,0,0,0,0,0,0,0,,,,
4392,0.1342158,0.4294208,0.05448918,0,0,0,0,0,0,0,,,,
4397,0.1342158,0.4294208,0.05448918,0,0,0,0,0,0,0,,,,
4402,0.1342158,0.4294208,0.05448918,0,0,0,0,0,0,0,,,,
4407,0.1342158,0.4294208,0.05448918,0,0,0,0,0,0,0,,,,
4412,0.1342158,0.4294208,0.05448918,0,0,0,0,0,0,0,,,,
4417,0.1342158,0.4294208,0.05448918,0,0,0,0,0,0,0,,,,
4422,0.1342158,0.4294208,0.05448918,0,0,0,0,0,0,0,,,,
4427,0.1371829,0.449335,0.03057817,0,0,0,0,0,0,0,,,,
4432,0.1371829,0.449335,0.03057817,0,0,0,0,0,0,0,,,,
4437,0.1371829,0.449335,0.03057817,0,0,0,0,0,0,0,,,,
4442,0.1371829,0.449335,0.03057817,0,0,0,0,0,0,0,,,,
4447,0.1371829,0.449335,0.03057817,0,0,0,0,0,0,0,,,,
4452,0.1371829,0.449335,0.03057817,0,0,0,0,0,0,0,,,,
4457,0.1371829,0.449335,0.03057817,0,0,0,0,0,0,0,,,,
4462,0.1371829,0.449335,0.03057817,0,0,0,0,0,0,0,,,,
4467,0.1371829,0.449335,0.03057817,0,0,0,0,0,0,0,,,,
4472,0.1371829,0.449335,0.03057817,0,0,0,0,0,0,0,,,,
4477,0.1371829,0.449335,0.03057817,0,0,0,0,0,0,0,,,,
4482,0.1371829,0.449335,0.03057817,0,0,0,0,0,0,0,,,,
4487,0.1371829,0.449335,0.03057817,0,0,0,0,0,0,0,,,,
4492,0.1354201,0.4669105,-0.002949606,0,0,0,0,0,0,0,,,,
4497,0.1354201,0.4669105,-0.002949606,0,0,0,0,0,0,0,,,,
4502,0.1354201,0.4669105,-0.002949606,0,0,0,0,0,0,0,,,,
4507,0.1354201,0.4669105,-0.002949606,0,0,0,0,0,0,0,,,,
4512,0.1354201,0.4669105,-0.002949606,0,0,0,0,0,0,0,,,,
4517,0.1354201,0.4669105,-0.002949606,0,0,0,0,0,0,0,,,,
4522,0.1354201,0.4669105,-0.002949606,0,0,0,0,0,0,0,,,,
4527,0.1354201,0.4669105,-0.002949606,0,0,0,0,0,0,0,,,,
4532,0.1354201,0.4669105,-0.002949606,0,0,0,0,0,0,0,,,,
4537,0.1354201,0.4669105,-0.002949606,0,0,0,0,0,0,0,,,,
4542,0.1354201,0.4669105,-0.002949606,0,0,0,0,0,0,0,,,,
4547,0.1354201,0.4669105,-0.002949606,0,0,0,0,0,0,0,,,,
4552,0.1354201,0.4669105,-0.002949606,0,0,0,0,0,0,0,,,,
4557,0.1379857,0.4679577,-0.03645993,0,0,0,0,0,0,0,,,,
4562,0.1379857,0.4679577,-0.03645993,0,0,0,0,0,0,0,,,,
4567,0.1379857,0.4679577,-0.03645993,0,0,0,0,0,0,0,,,,
4572,0.1379857,0.4679577,-0.03645993,0,0,0,0,0,0,0,,,,
4577,0.1379857,0.4679577,-0.03645993,0,0,0,0,0,0,0,,,,
4582,0.1379857,0.4679577,-0.03645993,0,0,0,0,0,0,0,,,,
4587,0.1379857,0.4679577,-0.03645993,0,0,0,0,0,0,0,,,,
4592,0.1379857,0.4679577,-0.03645993,0,0,0,0,0,0,0,,,,
4597,0.1379857,0.4679577,-0.03645993,0,0,0,0,0,0,0,,,,
4602,0.1379857,0.4679577,-0.03645993,0,0,0,0,0,0,0,,,,
4607,0.1379857,0.4679577,-0.03645993,0,0,0,0,0,0,0,,,,
4612,0.1379857,0.4679577,-0.03645993,0,0,0,0,0,0,0,,,,
4617,0.1379857,0.4679577,-0.03645993,0,0,0,0,0,0,0,,,,
4622,0.1566782,0.4364195,-0.06455973,0,0,0,0,0,0,0,,,,
4627,0.1566782,0.4364195,-0.06455973,0,0,0,0,0,0,0,,,,
4632,0.1566782,0.4364195,-0.06455973,0,0,0,0,0,0,0,,,,
4637,0.1566782,0.4364195,-0.06455973,0,0,0,0,0,0,0,,,,
4642,0.1566782,0.4364195,-0.06455973,0,0,0,0,0,0,0,,,,
4647,0.1566782,0.4364195,-0.06455973,0,0,0,0,0,0,0,,,,
4652,0.1566782,0.4364195,-0.06455973,0,0,0,0,0,0,0,,,,
4657,0.1566782,0.4364195,-0.06455973,0,0,0,0,0,0,0,,,,
4662,0.1566782,0.4364195,-0.06455973,0,0,0,0,0,0,0,,,,
4667,0.1566782,0.4364195,-0.06455973,0,0,0,0,0,0,0,,,,
4672,0.1566782,0.4364195,-0.06455973,0,0,0,0,0,0,0,,,,
4677,0.1566782,0.4364195,-0.06455973,0,0,0,0,0,0,0,,,,
4682,0.1566782,0.4364195,-0.06455973,0,0,0,0,0,0,0,,,,
4688,0.1782505,0.375909,-0.08426449,0,0,0,0,0,0,0,,,,
4693,0.1782505,0.375909,-0.08426449,0,0,0,0,0,0,0,,,,
4698,0.1782505,0.375909,-0.08426449,0,0,0,0,0,0,0,,,,
4703,0.1782505,0.375909,-0.08426449,0,0,0,0,0,0,0,,,,
4708,0.1782505,0.375909,-0.08426449,0,0,0,0,0,0,0,,,,
4713,0.1782505,0.375909,-0.08426449,0,0,0,0,0,0,0,,,,
4718,0.1782505,0.375909,-0.08426449,0,0,0,0,0,0,0,,,,
4723,0.1782505,0.375909,-0.08426449,0,0,0,0,0,0,0,,,,
4728,0.1782505,0.375909,-0.08426449,0,0,0,0,0,0,0,,,,
4733,0.1782505,0.375909,-0.08426449,0,0,0,0,0,0,0,,,,
4738,0.1782505,0.375909,-0.08426449,0,0,0,0,0,0,0,,,,
4743,0.1782505,0.375909,-0.08426449,0,0,0,0,0,0,0,,,,
4748,0.1782505,0.375909,-0.08426449,0,0,0,0,0,0,0,,,,
4753,0.1968382,0.3151192,-0.1030791,0,0,0,0,0,0,0,,,,
4758,0.1968382,0.3151192,-0.1030791,0,0,0,0,0,0,0,,,,
4763,0.1968382,0.3151192,-0.1030791,0,0,0,0,0,0,0,,,,
4768,0.1968382,0.3151192,-0.1030791,0,0,0,0,0,0,0,,,,
4773,0.1968382,0.3151192,-0.1030791,0,0,0,0,0,0,0,,,,
4778,0.1968382,0.3151192,-0.1030791,0,0,0,0,0,0,0,,,,
4783,0.1968382,0.3151192,-0.1030791,0,0,0,0,0,0,0,,,,
4788,0.1968382,0.3151192,-0.1030791,0,0,0,0,0,0,0,,,,
4793,0.1968382,0.3151192,-0.1030791,0,0,0,0,0,0,0,,,,
4798,0.1968382,0.3151192,-0.1030791,0,0,0,0,0,0,0,,,,
4803,0.1968382,0.3151192,-0.1030791,0,0,0,0,0,0,0,,,,
4808,0.1968382,0.3151192,-0.1030791,0,0,0,0,0,0,0,,,,
4813,0.1968382,0.3151192,-0.1030791,0,0,0,0,0,0,0,,,,
4818,0.2000845,0.278956,-0.1270949,0,0,0,0,0,0,0,,,,
4823,0.2000845,0.278956,-0.1270949,0,0,0,0,0,0,0,,,,
4828,0.2000845,0.278956,-0.1270949,0,0,0,0,0,0,0,,,,
4833,0.2000845,0.278956,-0.1270949,0,0,0,0,0,0,0,,,,
4838,0.2000845,0.278956,-0.1270949,0,0,0,0,0,0,0,,,,
4843,0.2000845,0.278956,-0.1270949,0,0,0,0,0,0,0,,,,
4848,0.2000845,0.278956,-0.1270949,0,0,0,0,0,0,0,,,,
4853,0.2000845,0.278956,-0.1270949,0,0,0,0,0,0,0,,,,
4858,0.2000845,0.278956,-0.1270949,0,0,0,0,0,0,0,,,,
4863,0.2000845,0.278956,-0.1270949,0,0,0,0,0,0,0,,,,
4868,0.2000845,0.278956,-0.1270949,0,0,0,0,0,0,0,,,,
4873,0.2000845,0.278956,-0.1270949,0,0,0,0,0,0,0,,,,
4878,0.2000845,0.278956,-0.1270949,0,0,0,0,0,0,0,,,,
4883,0.1958434,0.257471,-0.1550027,0,0,0,0,0,0,0,,,,
4888,0.1958434,0.257471,-0.1550027,0,0,0,0,0,0,0,,,,
4893,0.1958434,0.257471,-0.1550027,0,0,0,0,0,0,0,,,,
4898,0.1958434,0.257471,-0.1550027,0,0,0,0,0,0,0,,,,
4903,0.1958434,0.257471,-0.1550027,0,0,0,0,0,0,0,,,,
4908,0.1958434,0.257471,-0.1550027,0,0,0,0,0,0,0,,,,
4913,0.1958434,0.257471,-0.1550027,0,0,0,0,0,0,0,,,,
4918,0.1958434,0.257471,-0.1550027,0,0,0,0,0,0,0,,,,
4923,0.1958434,0.257471,-0.1550027,0,0,0,0,0,0,0,,,,
4928,0.1958434,0.257471,-0.1550027,0,0,0,0,0,0,0,,,,
4933,0.1958434,0.257471,-0.1550027,0,0,0,0,0,0,0,,,,
4939,0.1958434,0.257471,-0.1550027,0,0,0,0,0,0,0,,,,
4943,0.1958434,0.257471,-0.1550027,0,0,0,0,0,0,0,,,,
4951,0.1844115,0.2425309,-0.1776745,0,0,0,0,0,0,0,,,,
4955,0.1844115,0.2425309,-0.1776745,0,0,0,0,0,0,0,,,,
4960,0.1844115,0.2425309,-0.1776745,0,0,0,0,0,0,0,,,,
4965,0.1844115,0.2425309,-0.1776745,0,0,0,0,0,0,0,,,,
4970,0.1844115,0.2425309,-0.1776745,0,0,0,0,0,0,0,,,,
4975,0.1844115,0.2425309,-0.1776745,0,0,0,0,0,0,0,,,,
4980,0.1844115,0.2425309,-0.1776745,0,0,0,0,0,0,0,,,,
4985,0.1844115,0.2425309,-0.1776745,0,0,0,0,0,0,0,,,,
4990,0.1844115,0.2425309,-0.1776745,0,0,0,0,0,0,0,,,,
4995,0.1844115,0.2425309,-0.1776745,0,0,0,0,0,0,0,,,,
5000,0.1844115,0.2425309,-0.1776745,0,0,0,0,0,0,0,,,,
5005,0.1844115,0.2425309,-0.1776745,0,0,0,0,0,0,0,,,,
5010,0.1717404,0.2112372,-0.2000496,0,0,0,0,0,0,0,,,,
5015,0.1717404,0.2112372,-0.2000496,0,0,0,0,0,0,0,,,,
5020,0.1717404,0.2112372,-0.2000496,0,0,0,0,0,0,0,,,,
5025,0.1717404,0.2112372,-0.2000496,0,0,0,0,0,0,0,,,,
5030,0.1717404,0.2112372,-0.2000496,0,0,0,0,0,0,0,,,,
5035,0.1717404,0.2112372,-0.2000496,0,0,0,0,0,0,0,,,,
5040,0.1717404,0.2112372,-0.2000496,0,0,0,0,0,0,0,,,,
5045,0.1717404,0.2112372,-0.2000496,0,0,0,0,0,0,0,,,,
5050,0.1717404,0.2112372,-0.2000496,0,0,0,0,0,0,0,,,,
5055,0.1717404,0.2112372,-0.2000496,0,0,0,0,0,0,0,,,,
5060,0.1717404,0.2112372,-0.2000496,0,0,0,0,0,0,0,,,,
5065,0.1717404,0.2112372,-0.2000496,0,0,0,0,0,0,0,,,,
5070,0.1717404,0.2112372,-0.2000496,0,0,0,0,0,0,0,,,,
5075,0.1478119,0.1699253,-0.2275909,0,0,0,0,0,0,0,,,,
5080,0.1478119,0.1699253,-0.2275909,0,0,0,0,0,0,0,,,,
5085,0.1478119,0.1699253,-0.2275909,0,0,0,0,0,0,0,,,,
5090,0.1478119,0.1699253,-0.2275909,0,0,0,0,0,0,0,,,,
5095,0.1478119,0.1699253,-0.2275909,0,0,0,0,0,0,0,,,,
5101,0.1478119,0.1699253,-0.2275909,0,0,0,0,0,0,0,,,,
5106,0.1478119,0.1699253,-0.2275909,0,0,0,0,0,0,0,,,,
5111,0.1478119,0.1699253,-0.2275909,0,0,0,0,0,0,0,,,,
5116,0.1478119,0.1699253,-0.2275909,0,0,0,0,0,0,0,,,,
5121,0.1478119,0.1699253,-0.2275909,0,0,0,0,0,0,0,,,,
5126,0.1478119,0.1699253,-0.2275909,0,0,0,0,0,0,0,,,,
5131,0.1478119,0.1699253,-0.2275909,0,0,0,0,0,0,0,,,,
5136,0.1478119,0.1699253,-0.2275909,0,0,0,0,0,0,0,,,,
5141,0.1308648,0.1376367,-0.2493028,0,0,0,0,0,0,0,,,,
5146,0.1308648,0.1376367,-0.2493028,0,0,0,0,0,0,0,,,,
5151,0.1308648,0.1376367,-0.2493028,0,0,0,0,0,0,0,,,,
5156,0.1308648,0.1376367,-0.2493028,0,0,0,0,0,0,0,,,,
5161,0.1308648,0.1376367,-0.2493028,0,0,0,0,0,0,0,,,,
5166,0.1308648,0.1376367,-0.2493028,0,0,0,0,0,0,0,,,,
5171,0.1308648,0.1376367,-0.2493028,0,0,0,0,0,0,0,,,,
5176,0.1308648,0.1376367,-0.2493028,0,0,0,0,0,0,0,,,,
5181,0.1308648,0.1376367,-0.2493028,0,0,0,0,0,0,0,,,,
5186,0.1308648,0.1376367,-0.2493028,0,0,0,0,0,0,0,,,,
5191,0.1308648,0.1376367,-0.2493028,0,0,0,0,0,0,0,,,,
5196,0.1308648,0.1376367,-0.2493028,0,0,0,0,0,0,0,,,,
5201,0.1308648,0.1376367,-0.2493028,0,0,0,0,0,0,0,,,,
5206,0.1188569,0.1144587,-0.2653948,0,0,0,0,0,0,0,,,,
5211,0.1188569,0.1144587,-0.2653948,0,0,0,0,0,0,0,,,,
5216,0.1188569,0.1144587,-0.2653948,0,0,0,0,0,0,0,,,,
5221,0.1188569,0.1144587,-0.2653948,0,0,0,0,0,0,0,,,,
5226,0.1188569,0.1144587,-0.2653948,0,0,0,0,0,0,0,,,,
5231,0.1188569,0.1144587,-0.2653948,0,0,0,0,0,0,0,,,,
5236,0.1188569,0.1144587,-0.2653948,0,0,0,0,0,0,0,,,,
5241,0.1188569,0.1144587,-0.2653948,0,0,0,0,0,0,0,,,,
5246,0.1188569,0.1144587,-0.2653948,0,0,0,0,0,0,0,,,,
