Time(ms),Roll(Rads),Pitch(Rads),Yaw(Rads),VelX(m/s),VelY(m/s),VelZ(m/s),AccX(mm/s^2),AccY(mm/s^2),AccZ(mm/s^2),Altitude(m),,,Short flight 21/02/2017
0,0.007784169,-0.00965167,0.0599346,0,0,0,-8.049084,37.45188,-993.0366,0,,,
0,0.007784169,-0.00965167,0.0599346,0,0,0,-8.049084,37.45188,-993.0366,0,,,
64,0.007801622,-0.00965167,0.05996951,0,0,0,-8.106401,37.40424,-994.5376,0,,,
131,0.007784169,-0.00970403,0.05996951,0,0,0,-8.058964,37.40722,-996.6152,0,,,
196,0.007784169,-0.00970403,0.05998697,0,0,0,-8.147918,37.33821,-996.6304,0,,,
261,0.007784169,-0.009721483,0.06003933,0,0,0,-8.139198,37.48793,-993.6045,0,,,
326,0.007801622,-0.009756391,0.06009169,0,0,0,-8.077064,37.4285,-997.019,0,,,
391,0.007819075,-0.009756391,0.06014405,0,0,0,-8.078687,37.32733,-995.4956,0,,,
456,0.007906342,-0.009756391,0.0601615,0,0,0,-8.032139,38.41385,-995.168,0,,,
522,0.007923795,-0.009791297,0.06023131,0,0,0,-8.042199,37.40251,-996.4668,0,,,
586,0.008080875,-0.009791297,0.06030113,0,0,0,-8.523968,30.68816,-989.3618,0,,,
651,0.008063422,-0.009773844,0.06035348,0,0,0,-7.587937,37.55171,-987.4985,0,,,
717,0.008028515,-0.00980875,0.0604233,0,0,0,-8.163076,37.48076,-990.106,0,,,
781,0.008011061,-0.009826204,0.06051056,0,0,0,-7.982413,37.60411,-988.8433,0,,,
847,0.007976155,-0.00980875,0.06054547,0,0,0,-8.134562,37.3695,-997.7578,0,,,
911,0.007993608,-0.009791297,0.06058038,0,0,0,-8.063652,37.61233,-989.4688,0,,,
977,0.007714355,-0.009320058,0.06058038,0.003676573,0.003005453,0,-8.027754,37.46159,-997.1646,0,,,
1042,0.007487462,-0.008936086,0.06058038,0.004213348,0.00347426,0,-8.186706,37.44603,-996.582,0,,,
1107,0.00726057,-0.008552114,0.06065019,0.004209393,0.003513676,0,-8.112043,37.3385,-996.6377,0,,,
1172,0.007016224,-0.008098328,0.06070255,0.004033493,0.003452766,0,-8.149989,37.5926,-988.8555,0,,,
1236,0.006824237,-0.007749262,0.06073746,0.003878043,0.003346924,0,-8.036192,37.37816,-995.2261,0,,,
1302,0.006579891,-0.007347836,0.06078982,0.003669141,0.003243726,0,-8.111536,37.49275,-992.9375,0,,,
1366,0.006405359,-0.007016224,0.06084218,0.003552248,0.003149676,0,-6.638453,37.49382,-991.4707,0,,,
1433,0.006300638,-0.006562438,0.06084218,0.003836604,0.002899139,0,-1.780313,37.82568,-995.228,0,,,
1497,0.006021386,-0.005986479,0.06099926,0.004276531,0.003085378,0,-3.380359,34.1523,-990.4189,0,,,
1563,0.00588176,-0.00546288,0.06089454,0.004276847,0.003291521,0,-10.51885,44.803,-992.9794,0,,,
1627,0.00561996,-0.005009095,0.06085963,0.00364953,0.00356756,0,2.654177,45.64286,-999.5269,0,,,
1692,0.005480334,-0.004660029,0.06085963,0.003068919,0.002679631,0,-9.681596,34.18053,-994.3843,0,,,
1757,0.005427974,-0.00439823,0.06092944,0.002504598,0.002425173,0,-5.381194,37.21551,-990.7563,0,,,
1822,0.005288348,-0.004118977,0.06096435,0.002133347,0.002499794,0,-6.190836,42.46757,-990.5732,0,,,
1887,0.005096362,-0.003926991,0.06099926,0.001834321,0.002592844,0,-7.702874,25.68682,-990.8354,0,,,
1953,0.005044002,-0.003735005,0.06113888,0.001384087,0.002511659,0,-7.076021,31.58136,-989.6602,0,,,
2017,0.004956735,-0.003735005,0.06108652,0.001418125,0.002764165,0,-3.42582,31.63377,-995.2865,0,,,
2082,0.004799656,-0.003996804,0.06108652,0.001527819,0.00213627,0,-5.306633,21.66623,-997.2178,0,,,
2147,0.004433136,-0.004101524,0.06099926,0.001567759,0.002202629,0,-7.631701,38.31575,-992.8973,0,,,
2213,0.004450589,-0.003351032,0.06127851,0.002463852,0.002321411,0,2.858573,20.30746,-988.5136,0,,,
2279,0.004101524,-0.003298672,0.06122615,0.001697061,0.002040435,0,-13.84642,40.82717,-990.6021,0,,,
2343,0.004258603,-0.00296706,0.0614705,0.001884639,0.002904295,0,-7.780981,49.78775,-995.4057,0,,,
2408,0.003822271,-0.002897247,0.06096435,0.001642534,0.002384452,0,-3.300644,37.31955,-999.5459,0,,,
2474,0.003996804,-0.002513274,0.06183701,0.001288271,0.002306393,0,-9.736049,45.63098,-991.4101,0,,,
2539,0.003735005,-0.002460914,0.06145304,0.001223924,0.001978281,0,-1.725215,33.22174,-992.7505,0,,,
2604,0.003769911,-0.002181662,0.06155776,0.001818188,0.003032806,0,5.958555,63.73762,-997.0708,0,,,
2669,0.003298672,-0.002094395,0.06148795,0.001390341,0.002335081,0,0.1304871,45.74874,-994.3555,0,,,
2734,0.003263766,-0.001466077,0.06181956,0.001177686,0.002192004,0,-24.16668,44.14246,-983.3061,0,,,
2799,0.003368485,-0.002129302,0.06185447,0.001007729,0.000963456,0,9.833086,25.72747,-1009.422,0,,,
2864,0.00296706,-0.001518436,0.06197665,0.001421549,0.001950109,0,-21.38865,46.61674,-971.1127,0,,,
2929,0.00280998,-0.00137881,0.06169739,0.001462654,0.000949331,0,-3.114889,42.3484,-991.9072,0,,,
2994,0.00286234,-0.001745329,0.06161012,0.00033457,0.001376196,0,-3.933569,29.11656,-999.9824,0,,,
3059,0.00270526,-0.00137881,0.062029,0.000969886,0.00169086,0,1.987712,48.58543,-999.0761,0,,,
3124,0.002879793,-0.001745329,0.0622908,0.000211871,0.001324099,0,-6.592216,44.14019,-992.2465,0,,,
3189,0.002687807,-0.001466077,0.06258751,0.000821495,0.000326524,0,-3.842786,32.56775,-996.7913,0,,,
3254,0.00312414,-0.000925025,0.0630762,0.001859218,0.0014027,0,9.846688,42.12231,-996.3078,0,,,
3319,0.003438299,-0.001396263,0.06316347,0.000619077,0.001424868,0,4.413989,37.87223,-995.5871,0,,,
3384,0.003769911,-0.001727876,0.06377433,0.000808564,0.001428879,0,-6.568764,32.69469,-997.1962,0,,,
3449,0.003490658,-0.003892084,0.0655022,-0.00019228,0.000936292,0,-11.27138,28.17978,-981.5013,0,,,
3514,0.004537856,-0.006091199,0.07021459,0.000746165,0.001588968,0,-8.29748,42.15401,-1009.168,0,,,
3579,0.00429351,-0.008918632,0.07513642,0.00102345,0.000342626,0,-29.78696,28.99784,-1005.771,0,,,
3644,0.006614798,-0.01794199,0.08297296,0.004272567,-0.001750697,0,0,0,0,0,,,
3709,0.006161012,-0.03038618,0.09145525,0.008723143,-0.000670694,0,-14.18083,17.92944,-1054.897,0,,,
3774,0.009267699,-0.03895575,0.1015956,0.01522911,-0.000116618,0,-14.78683,14.50836,-1067.514,0,,,
3839,0.002042035,-0.04284783,0.1082628,0.02007195,-0.00095642,0,-7.251744,14.17763,-1005.938,0,,,
3904,-0.01333432,-0.02918191,0.1155582,0.02067405,-0.004008602,0,13.43587,31.49203,-997.0011,0,,,
3970,-0.02036799,-0.01207768,0.1228014,0.01276567,-0.007007144,0,10.36973,46.52537,-1034.267,0,,,
4035,-0.02382374,-0.004206243,0.1289449,0.006657053,-0.008335027,0,2.507202,33.99532,-1024.416,0,,,
4100,-0.01832596,-0.000401426,0.1323658,0.003793579,-0.008362511,0,8.776433,36.85856,-1031.607,0,,,
4165,-0.01282817,0.003246312,2.026886,0.000140018,-0.005117791,0,-17.48056,45.98982,-1044.823,0.24,,,
4230,-0.0182736,0.005096362,2.025036,0.1547012,-0.125982,0,7.1234,51.45407,-1244.214,0.245,,,
4295,-0.02141519,0.008098328,2.02542,0.195626,-0.1176664,0,-10.45775,23.38921,-1288.541,0.271,,,
4360,-0.02399828,0.005270894,2.027427,0.1217386,-0.08090493,0,10.61815,30.1201,-1322.17,0.25,,,
4425,-0.02843141,0.008429941,2.032541,0.02757236,-0.1062809,0,10.00261,21.9203,-1321.054,0.279,,,
4490,-0.02616248,0.01497492,2.039138,0.04700325,-0.1623928,0,50.75309,91.13734,-1289.402,0.299,,,
4555,-0.02197369,0.02408554,2.046922,0.1505943,-0.1595791,0,-51.79765,13.14925,-1134.467,0.355,,,
4620,-0.01966986,0.02476622,2.045334,0.1779465,-0.1275314,0,-28.52942,39.09438,-1032.274,0.424,,,
4685,-0.0201411,0.02713987,2.042594,0.1581159,-0.2066185,0,-28.22392,44.14098,-925.4183,0.504,,,
4750,-0.02031563,0.02729695,2.038632,0.09272201,-0.2479676,0,-26.02176,56.06335,-567.0345,0.583,,,
4815,-0.02087414,0.02424262,2.03371,0.05462866,-0.203023,0,0,0,0,0.64,,,
4880,-0.01877974,0.0198793,2.02905,0.02325053,-0.1232111,0,-16.61168,64.86493,-524.3486,0.698,,,
4945,-0.01411971,0.01776745,2.024163,0.01420224,-0.2149228,0,-7.480387,55.20687,-539.4597,0.734,,,
5010,-0.008098328,0.01692969,2.020288,0.0181419,-0.2374923,0,-1.223061,53.83981,-616.259,0.758,,,
5099,-0.003700098,0.01630137,2.016449,0.03396184,-0.2472962,0,-4.624987,58.44427,-706.7219,0.774,,,
5164,-0.000890118,0.01485275,2.014826,0.02832088,-0.2888343,0,1.119003,69.61649,-816.1464,0.754,,,
5250,-0.000401426,0.01399754,2.014215,0.01991784,-0.2687017,0,5.422693,55.73102,-896.1813,0.737,,,
5315,-0.000436332,0.01338668,2.014878,0.01137457,-0.312424,0,14.03718,59.5409,-1045.238,0.68,,,
5380,-0.002583087,0.02000147,2.016588,0.005755596,-0.2834553,0,14.62632,58.01923,-1181.601,0.65,,,
5445,-0.00439823,0.0318348,2.018159,0.002907263,-0.2225709,0,10.05822,53.76358,-1259.571,0.609,,,
5510,-0.007819075,0.03768166,2.019695,-0.005275811,-0.266572,0,15.3703,48.99545,-1256.048,0.594,,,
5575,-0.01111775,0.0381878,2.020533,-0.01474371,-0.2523883,0,6.93032,41.06817,-1231.355,0.57,,,
5640,-0.01387537,0.03420845,2.020638,-0.03675381,-0.2351887,0,15.50599,46.50423,-1181.548,0.56,,,
5705,-0.01429425,0.02638938,2.02048,-0.04563462,-0.2092355,0,22.0924,64.22439,-1111.073,0.566,,,
5770,-0.01347394,0.02377138,2.020533,-0.05075549,-0.2246206,0,22.30127,55.9616,-1051.712,0.574,,,
5836,-0.01151917,0.02717478,2.020829,-0.05224701,-0.2168191,0,17.62118,64.49378,-995.1173,0.589,,,
5901,-0.009093165,0.02614503,2.021091,-0.05565268,-0.2119632,0,16.56816,56.58263,-951.0433,0.606,,,
5966,-0.007295476,0.02207842,2.020917,-0.06078602,-0.2022209,0,17.07016,56.55419,-937.8777,0.617,,,
6031,-0.006143559,0.01727876,2.020638,-0.07147963,-0.1913277,0,11.11567,55.12713,-942.6012,0.63,,,
6096,-0.005899213,0.0122173,2.019939,-0.07192475,-0.1917293,0,21.58273,58.05587,-947.0856,0.635,,,
6161,-0.006981317,0.008237954,2.019538,-0.06791144,-0.2109782,0,16.39302,57.80996,-952.2023,0.64,,,
6226,-0.006928958,0.006143559,2.019259,-0.06581599,-0.2200482,0,13.64743,50.41294,-971.1659,0.645,,,
6291,-0.001047197,0.005515241,2.018665,-0.05550811,-0.2032231,0,14.51841,61.49561,-985.6724,0.647,,,
6356,0.003909538,0.003700098,2.018299,-0.0525775,-0.1853346,0,31.13343,61.57832,-976.5315,0.65,,,
6421,0.003403392,0.002984513,2.017932,-0.0519359,-0.1979884,0,29.31092,60.06425,-987.6086,0.656,,,
6486,0.000453786,0.002286381,2.017199,-0.04402053,-0.1767864,0,19.31067,55.28129,-977.3769,0.659,,,
6551,-0.002949606,0.001727876,2.016536,-0.01732656,-0.2217728,0,13.95539,55.05481,-962.9679,0.665,,,
6616,-0.006527531,0.000872665,2.016169,-0.01387739,-0.2723981,0,11.95863,57.5104,-963.2996,0.672,,,
6681,-0.008709193,0.002024582,2.015628,-0.0190264,-0.1913778,0,10.55561,53.12761,-1030.02,0.655,,,
6746,-0.01033235,0.006579891,2.016187,-0.0145267,-0.1609383,0,19.98939,49.6947,-1024.139,0.655,,,
6811,-0.01216495,0.01481785,2.016065,-0.01622644,-0.1585624,0,8.763329,48.88103,-1012.398,0.655,,,
6876,-0.01329941,0.0183085,2.016222,-0.01969783,-0.2023602,0,10.14917,49.95643,-988.1546,0.66,,,
6941,-0.01356121,0.01736603,2.01582,-0.02801783,-0.1906655,0,15.45552,56.82943,-974.3628,0.664,,,
7006,-0.01438151,0.01424189,2.015454,-0.02396473,-0.1807599,0,16.38712,50.92741,-1010.844,0.656,,,
7092,-0.01436406,0.01158899,2.015454,-0.02041078,-0.2237989,0,20.53704,52.68072,-1017.143,0.66,,,
7157,-0.01314233,0.009110619,2.015489,-0.02165788,-0.1792526,0,15.75042,46.59761,-970.0063,0.658,,,
7222,-0.0105767,0.01130973,2.015262,-0.02263106,-0.1561376,0,14.94836,49.99046,-913.871,0.656,,,
7287,-0.01127483,0.01521927,2.014843,-0.01506204,-0.1715458,0,11.93218,53.35847,-944.4922,0.652,,,
7352,-0.01267109,0.01469567,2.014337,-0.01301794,-0.1937785,0,11.65472,45.28147,-957.4965,0.649,,,
7417,-0.01413717,0.01281072,2.013848,-0.02533077,-0.2234662,0,14.71551,52.86811,-967.7231,0.644,,,
7482,-0.01427679,0.0103498,2.013429,-0.02075745,-0.1703394,0,20.81446,52.53309,-982.5463,0.635,,,
7547,-0.01335177,0.01396263,2.012941,-0.01760554,-0.1645747,0,11.94592,47.42293,-993.4031,0.63,,,
7612,-0.01302016,0.0180118,2.01233,-0.01836265,-0.155184,0,6.285799,52.46254,-984.939,0.622,,,
7677,-0.01384046,0.01891937,2.011946,-0.03626082,-0.1621447,0,11.32216,55.95779,-1004.237,0.612,,,
7742,-0.01377065,0.01720895,2.01137,-0.03236605,-0.1525378,0,20.96343,58.50607,-1014.366,0.604,,,
7807,-0.01394518,0.01315978,2.011352,-0.03302392,-0.1505273,0,22.96702,58.19002,-1012.523,0.597,,,
7872,-0.01343904,0.008918632,2.011597,-0.03613053,-0.1719806,0,20.70472,47.90631,-1020.267,0.591,,,
7937,-0.01272345,0.007330383,2.010916,-0.03577596,-0.1533987,0,18.07668,52.09342,-1023.948,0.585,,,
8002,-0.01146681,0.004415683,2.010986,-0.02884212,-0.1498851,0,6.697523,52.22131,-1011.68,0.579,,,
8067,-0.008988446,0.003682645,2.010672,-0.02417763,-0.1698764,0,19.48524,55.21704,-1019.088,0.577,,,
8132,-0.007417649,0.002844887,2.010864,-0.0218357,-0.1496298,0,25.43724,51.78284,-1024.04,0.574,,,
8197,-0.006597344,0.003700098,2.011021,-0.02087025,-0.1408025,0,17.29306,54.38391,-1019.894,0.574,,,
8262,-0.005340707,0.003595378,2.0113,-0.01238138,-0.1359051,0,21.97844,43.88009,-1027.679,0.576,,,
8327,-0.005009095,0.005550147,2.011125,-0.02427658,-0.1298473,0,19.90894,52.37409,-1018.836,0.574,,,
8392,-0.005323255,0.005218534,2.011457,-0.01778402,-0.1247894,0,17.514,48.8376,-1013.602,0.574,,,
8457,-0.005829399,0.004276057,2.011719,-0.01472383,-0.1206738,0,14.16623,50.49593,-1011.699,0.574,,,
8522,-0.006073745,0.006894051,2.012242,-0.008870474,-0.129501,0,9.292931,52.6133,-1015.251,0.577,,,
8587,-0.0082205,0.01064651,2.012906,-0.01443224,-0.122273,0,17.76902,44.81106,-1015.915,0.58,,,
8652,-0.007784169,0.01233948,2.013516,-0.0191885,-0.1247296,0,12.26871,42.17842,-1013.783,0.584,,,
8717,-0.006422812,0.01275836,2.013429,-0.03094833,-0.1125788,0,4.597969,46.98234,-1001.727,0.588,,,
8782,-0.00684169,0.01160644,2.013761,-0.02851452,-0.1046371,0,7.448818,43.53125,-990.7932,0.593,,,
8847,-0.007208209,0.01111775,2.013848,-0.02393779,-0.1040916,0,7.033307,44.39647,-1003.091,0.597,,,
8913,-0.007225663,0.0106116,2.013848,-0.0294461,-0.0989451,0,10.71298,47.24136,-991.7744,0.605,,,
8978,-0.006544985,0.007923795,2.013901,-0.03346762,-0.09167451,0,10.89177,50.18291,-998.6772,0.609,,,
9043,-0.006352998,0.006073745,2.013883,-0.03207177,-0.0933816,0,18.43932,47.1308,-988.12,0.614,,,
9109,-0.006440265,0.005009095,2.01411,-0.03034884,-0.09275814,0,23.17542,43.79016,-997.7653,0.619,,,
9174,-0.006283185,0.004520403,2.014407,-0.02577045,-0.09092939,0,11.60615,47.39934,-984.2001,0.626,,,
9239,-0.006248279,0.004520403,2.013935,-0.02285547,-0.09074195,0,16.44219,40.82673,-998.7596,0.628,,,
9304,-0.005550147,0.004223697,2.013674,-0.03048746,-0.1169947,0,9.533296,49.64467,-1003.252,0.633,,,
9369,-0.005148721,0.003508112,2.01329,-0.02352322,-0.1112848,0,25.86776,45.61721,-1013.657,0.636,,,
9434,-0.00572468,0.002740167,2.012836,-0.03714569,-0.08843055,0,11.98202,41.61624,-1002.518,0.643,,,
9499,-0.005497787,0.002373648,2.01205,-0.02536009,-0.07443386,0,7.913463,50.00394,-991.455,0.649,,,
9564,-0.004712389,0.002076942,2.011248,-0.01832555,-0.06532983,0,10.08734,41.13566,-979.645,0.655,,,
9630,-0.004817109,0.003298672,2.010881,-0.01349644,-0.07061274,0,14.56936,51.59438,-974.1755,0.664,,,
9695,-0.004642576,0.004607669,2.010497,-0.01703749,-0.06029911,0,7.562473,46.95316,-987.9005,0.665,,,
9761,-0.004590216,0.006213372,2.009747,-0.01630552,-0.03790256,0,10.47654,40.70473,-990.0977,0.667,,,
9826,-0.004782202,0.00567232,2.009694,-0.01361383,-0.0307681,0,14.71409,45.16299,-988.1677,0.673,,,
9891,-0.004171337,0.006073745,2.009467,-0.01475096,-0.02729456,0,4.606535,31.26685,-982.8539,0.675,,,
9956,-0.002984513,0.005585053,2.008926,-0.01454798,-0.03489556,0,13.94218,35.54724,-993.3377,0.677,,,
10021,-0.00312414,0.005305801,2.008996,-0.01597815,-0.02742958,0,0,0,0,0.678,,,
10086,-0.002879793,0.004642576,2.009066,-0.01602303,-0.02246911,0,16.62064,46.92096,-986.4931,0.68,,,
10151,-0.002949606,0.003316126,2.008909,-0.007042323,-0.02296581,0,9.741901,35.67041,-984.058,0.684,,,
10216,-0.00312414,0.003804818,2.009834,-0.01726336,-0.02731835,0,20.94372,43.73513,-1002.337,0.685,,,
10281,-0.004380776,0.003595378,2.010026,-0.03482138,-0.03528021,0,19.31833,35.06723,-994.8297,0.688,,,
10346,-0.005148721,0.00312414,2.010357,-0.01268204,-0.02484876,0,-1.498702,40.27701,-989.7769,0.689,,,
10411,-0.003525565,0.001204277,2.010514,-0.01132226,-0.02789938,0,21.63846,35.33073,-996.8354,0.69,,,
10476,-0.002844887,0.002426008,2.011178,-0.008878386,-0.0256422,0,3.076972,39.78142,-997.4079,0.691,,,
10541,-0.000785398,0.004014257,2.011003,-0.005441711,-0.02237867,0,14.95442,45.49402,-1001.168,0.694,,,
10606,-0.00020944,0.006387905,2.011387,-0.005873299,-0.02164778,0,6.396953,39.81646,-992.3868,0.697,,,
10671,-0.000244346,0.006161012,2.011789,-0.006318935,-0.01568852,0,8.905288,44.60558,-1001.604,0.701,,,
10736,-0.000855211,0.005323255,2.012103,-0.007016087,-0.01517932,0,9.80799,40.07924,-987.9968,0.704,,,
10801,-0.001291544,0.005113815,2.012312,-0.00605381,-0.02271461,0,15.16166,37.96792,-989.7484,0.707,,,
10866,-0.001134464,0.003351032,2.012923,0.002133087,-0.02665189,0,16.42139,42.97884,-995.0744,0.708,,,
10931,6.98E-05,0.002565634,2.012399,-0.01085233,-0.02181386,0,7.497219,46.71431,-986.4628,0.712,,,
10996,0.001186824,0.000767945,2.011894,-0.007806468,-0.01846084,0,18.78664,39.83889,-1001.506,0.714,,,
11061,0.001448623,0.001047197,2.011492,-0.007032203,-0.01212185,0,15.19292,38.01135,-1000.061,0.715,,,
11126,0.000942478,0.002251475,2.01137,-0.007863727,-0.01285216,0,13.87371,41.28855,-1002.221,0.72,,,
11191,0.000698132,0.003001966,2.011352,-0.006443116,-0.009948811,0,8.153066,38.03718,-994.2548,0.722,,,
11256,0.000296706,0.004764749,2.011143,-0.003049976,-0.0187086,0,0.9250922,45.00733,-988.951,0.723,,,
11321,-0.00020944,0.006178466,2.011073,-0.003355847,-0.007132548,0,14.05817,45.87509,-997.7399,0.724,,,
11386,-0.000523599,0.007906342,2.010759,-0.004266667,-0.01582288,0,13.1672,42.57507,-998.5266,0.728,,,
11451,0.000191986,0.00816814,2.010462,-0.0125541,-0.004405465,0,6.693196,42.93301,-987.6029,0.728,,,
11516,0.001012291,0.006771878,2.010323,-0.009941392,-0.01312803,0,7.555303,49.76009,-984.6404,0.731,,,
11581,0.001308997,0.00397935,2.009886,-0.0143535,-0.005174578,0,13.15197,40.54531,-988.5464,0.734,,,
11646,0.000383972,0.001797689,2.009624,-0.005254189,-4.06E-05,0,17.96314,40.65319,-991.0904,0.737,,,
11711,0.000733038,-0.000890118,2.009433,-0.009470806,0.006526234,0,11.85771,40.1867,-987.0705,0.738,,,
11776,-0.001029744,-0.002042035,2.009048,-0.002110519,0.01592225,0,10.52421,34.69419,-978.4775,0.74,,,
11841,-0.003228859,-0.001151917,2.009171,-0.01463748,-0.001194006,0,13.032,42.13121,-981.5511,0.739,,,
11906,-0.003595378,0.001117011,2.008438,-0.01049021,0.009719276,0,18.41244,44.64967,-993.8216,0.738,,,
11971,-0.00312414,0.006457718,2.008316,-0.01236231,-0.001280317,0,13.79801,46.5051,-994.7512,0.738,,,
12036,-0.003298672,0.0161792,2.007704,-0.01798741,-0.000938766,0,11.73431,34.19527,-995.7625,0.737,,,
12101,-0.004171337,0.02010619,2.007478,-0.02687952,0.001741414,0,8.68095,40.63944,-992.1378,0.741,,,
12166,-0.005131268,0.01881465,2.007146,-0.03468003,0.004572565,0,17.26151,45.68248,-992.2244,0.738,,,
12232,-0.004258603,0.01448623,2.006849,-0.04156972,0.001335695,0,17.31067,42.48811,-998.7012,0.738,,,
12297,-0.003560472,0.009686577,2.006535,-0.0422003,0.006806422,0,11.19885,37.97258,-1005.927,0.739,,,
12362,-0.00270526,0.006579891,2.005732,-0.04225029,0.01647153,0,18.53014,48.91618,-993.226,0.737,,,
12430,-0.001919862,0.00286234,2.004999,-0.04706064,0.01215042,0,20.29505,36.73641,-999.9791,0.74,,,
12495,-0.000593412,-0.000802852,2.004092,-0.04206996,0.01697994,0,16.56695,42.22494,-998.0529,0.738,,,
12560,0.000279253,-0.003543018,2.003289,-0.04289167,0.01018372,0,24.64466,46.16285,-1009.339,0.737,,,
12625,-0.001553343,-0.003822271,2.003027,-0.04381028,0.01567191,0,20.4357,42.88765,-1001.834,0.738,,,
12690,-0.003473205,-0.003298672,2.00273,-0.03595466,0.01048992,0,12.44445,41.15284,-997.3117,0.74,,,
12755,-0.002670354,-0.002199115,2.002748,-0.03248164,0.006867012,0,19.55742,33.56321,-995.9719,0.745,,,
12820,0.003089233,-0.000488692,2.002503,-0.02740001,-0.00787765,0,9.458523,37.14153,-994.7704,0.744,,,
12885,0.007120943,-0.000506146,2.002207,-0.02986028,-0.01418242,0,15.94269,43.98334,-985.7067,0.743,,,
12971,0.008063422,-0.000925025,2.00177,-0.03139927,0.002518032,0,10.15202,41.42368,-991.4243,0.744,,,
13036,0.005899213,-0.002268928,2.000741,-0.02053685,0.01814979,0,9.33556,38.30314,-988.7355,0.746,,,
13101,0.003420845,-0.003804818,2.000269,-0.02325588,0.01329839,0,12.70804,40.34615,-984.2526,0.742,,,
13166,0.001605703,-0.003961897,2.000025,-0.02010073,0.01357624,0,8.863449,28.482,-984.2057,0.743,,,
13231,0.005061455,-0.003595378,2.000025,-0.01782851,0.01226974,0,6.099515,32.88758,-981.2169,0.744,,,
13296,0.007871435,-0.001989675,1.999938,-0.01884728,0.02444297,0,11.4382,45.26204,-981.9142,0.745,,,
13361,0.007888888,-0.001815142,1.999624,-0.0160594,0.003713829,0,8.869598,33.19863,-989.4006,0.742,,,
13426,0.004764749,-0.002426008,1.999711,-0.01219796,0.007688753,0,12.39905,31.255,-986.0406,0.741,,,
13491,0.000558505,-0.002321288,1.999781,-0.01662576,-0.004382068,0,12.85883,36.18701,-988.1558,0.739,,,
13556,-0.002897247,-0.000698132,1.999851,-0.009933762,-0.001040399,0,10.55286,37.35104,-996.1145,0.739,,,
13621,-0.000942478,-0.000366519,1.999833,-0.000824109,-0.005036728,0,14.50884,41.70235,-1011.912,0.736,,,
13686,0.005061455,0.000418879,1.999868,-0.008127236,-0.004486154,0,6.957865,29.48192,-1001.203,0.736,,,
13751,0.008656833,0.000436332,1.999728,-0.01315528,0.01171309,0,10.348,31.64227,-995.2413,0.739,,,
13816,0.007923795,0.001710423,1.999554,-0.000682176,0.002732394,0,18.24506,38.49723,-997.9976,0.732,,,
13881,0.003961897,0.002548181,1.999537,-0.009757258,0.01069158,0,10.10308,36.35265,-1006.827,0.728,,,
13946,-0.000785398,0.003246312,1.999379,-0.01077156,0.01016952,0,11.14236,38.02137,-1006.103,0.729,,,
14011,-0.002984513,0.002617994,2.000112,-0.003029022,0.002755358,0,11.30174,35.61082,-1000.502,0.728,,,
14076,-0.001308997,0.000226893,2.001334,-0.006953578,0.006755268,0,10.65482,32.87698,-1007.401,0.728,,,
14141,0.000959931,-0.001884956,2.001404,-0.01095888,0.006731317,0,4.90093,36.94546,-999.0054,0.726,,,
14207,0.00397935,-0.006003933,2.000933,-0.01027927,0.01138082,0,20.93141,34.38444,-1007.034,0.727,,,
14272,0.004415683,-0.006981317,2.000723,-0.003627043,0.01771227,0,15.73928,30.96309,-998.3093,0.73,,,
14337,0.001972222,-0.005759587,2.000566,0.00907442,0.01447267,0,6.942549,34.0545,-996.5723,0.729,,,
14402,-0.001605703,-0.003700098,2.000304,0.01047482,0.01576632,0,4.846496,34.16087,-992.903,0.729,,,
14467,-0.005410521,-0.00158825,1.999746,0.003309269,0.01265564,0,11.86411,28.60247,-992.5173,0.731,,,
14532,-0.006876597,0.000750492,1.9991,0.004569293,0.008376513,0,15.59649,33.69864,-1000.836,0.73,,,
14597,-0.00895354,0.002059489,1.998873,0.003736861,0.002095005,0,10.88951,33.69725,-986.9117,0.734,,,
14662,-0.007033677,0.002391101,1.998594,-0.004340245,-0.02156177,0,9.314236,40.73701,-993.7961,0.734,,,
14727,0.00127409,0.002199115,1.9991,0.005159257,-0.01058633,0,9.505115,38.4198,-992.4503,0.735,,,
14792,0.01096067,0.001640609,1.999205,0.000746257,-0.0118815,0,10.61796,32.21342,-983.2816,0.736,,,
14857,0.01951278,-0.000890118,1.999048,0.001310698,-0.009758171,0,18.68461,21.83058,-996.9315,0.733,,,
14922,0.02878048,-0.00143117,1.998384,-0.01712626,-0.03300764,0,0,0,0,0.734,,,
14987,0.03787364,-0.001204277,1.997826,-0.004828606,-0.002394177,0,11.79646,36.69176,-990.6309,0.737,,,
15052,0.04417428,-0.000890118,1.996639,0.008227396,0.02342096,0,-2.25407,28.91901,-989.6513,0.738,,,
15117,0.04852015,0.000279253,1.995156,0.01584516,0.05240409,0,9.63624,31.45852,-998.978,0.737,,,
15182,0.05075417,0.001815142,1.994213,0.01619123,0.06700077,0,11.78214,30.10511,-1001.573,0.734,,,
15247,0.05113815,0.001867502,1.993114,0.01089606,0.07251449,0,10.97361,22.05781,-998.0312,0.734,,,
15312,0.04963716,0.000785398,1.99184,0.008315396,0.09295689,0,14.96121,13.99686,-1016.706,0.735,,,
15377,0.04359832,0.000488692,1.991299,0.01436078,0.1212345,0,12.77502,26.19374,-996.414,0.734,,,
15442,0.03150319,0.001692969,1.991159,0.01938328,0.1329697,0,-0.8844781,25.43558,-984.0187,0.735,,,
15507,0.01862266,0.0026529,1.991333,0.01993746,0.1336858,0,6.42518,15.9973,-995.5431,0.737,,,
15572,0.009337512,0.002181662,1.99149,0.02493224,0.130099,0,11.70914,16.643,-992.0383,0.74,,,
15637,0.00153589,0.001413717,1.991717,0.009623437,0.1302205,0,7.73439,17.66794,-990.9269,0.74,,,
15702,-0.001204277,-0.000418879,1.992381,0.009783586,0.1207633,0,12.5905,23.94713,-983.5513,0.74,,,
15767,0.000750492,-0.003385939,1.993236,0.009697428,0.1128203,0,11.65725,17.67528,-989.2045,0.74,,,
15836,0.0029147,-0.004677482,1.994667,0.01485764,0.1075446,0,13.95787,21.3128,-994.7725,0.737,,,
15901,0.003612831,-0.002670354,1.997442,0.01720582,0.09769681,0,-1.573039,20.35651,-989.8787,0.735,,,
15966,0.002670354,0.000296706,1.999973,0.02413438,0.090818,0,11.71552,21.63722,-995.6658,0.734,,,
16031,-0.000331613,0.002949606,2.002661,0.0231918,0.08996514,0,4.828407,25.37934,-1007.096,0.735,,,
16096,-0.002024582,0.002356195,2.005279,0.01503321,0.0884817,0,3.70558,26.15715,-937.411,0.734,,,
16161,-0.00015708,-0.001256637,2.007408,0.01191442,0.07642642,0,-1.281845,23.34599,-829.0012,0.728,,,
16226,0.002426008,-0.003368485,2.008979,0.01917358,0.06571838,0,-5.836811,29.38002,-864.556,0.72,,,
16291,0.002408554,-0.003490658,2.01048,0.03824897,0.02690111,0,0.7131354,26.92834,-906.7704,0.705,,,
16357,0.001169371,-0.001204277,2.011754,0.06498189,0.02919021,0,7.50238,25.8952,-936.8688,0.692,,,
16421,-0.00137881,0.003665191,2.012504,0.045861,0.02724276,0,4.507437,26.93216,-971.4354,0.674,,,
16486,-0.003944444,0.00710349,2.013342,0.02712072,0.02751075,0,-0.4201615,23.11884,-972.3449,0.654,,,
16551,-0.004136431,0.009843657,2.014058,0.02466355,-0.000868693,0,8.622775,33.64679,-1005.57,0.63,,,
16616,-0.004101524,0.01253146,2.014564,0.01324837,-0.03014787,0,7.839236,18.42819,-1024.066,0.606,,,
16681,-0.001989675,0.01462586,2.014599,0.000686052,-0.01589087,0,-3.110092,26.58158,-1037.984,0.584,,,
16746,-0.001012291,0.01548107,2.01493,-0.004123392,-0.01906545,0,4.438808,25.99212,-1043.673,0.564,,,
16811,0.000715585,0.01556834,2.01418,-0.01012364,-0.01250143,0,11.26537,29.86817,-1048.459,0.545,,,
16876,0.00312414,0.01621411,2.014075,-0.01476429,-0.01455486,0,12.47888,32.22829,-1061.416,0.529,,,
16942,0.005148721,0.01699951,2.01425,-0.02235599,-0.007834162,0,13.52875,31.07352,-1058.822,0.512,,,
17007,0.00731293,0.0175231,2.014477,-0.03261765,-0.004058627,0,10.45896,29.95142,-1057.063,0.5,,,
17072,0.006422812,0.01684243,2.015925,-0.04719008,0.004873946,0,14.68262,29.06861,-1060.275,0.492,,,
17137,0.003438299,0.0148353,2.017444,-0.05529996,0.01482364,0,19.12434,26.35452,-1053.004,0.486,,,
17202,0.00132645,0.01427679,2.019206,-0.06264874,0.01431115,0,22.04439,28.72928,-1053.505,0.482,,,
17267,0.000855211,0.01422443,2.020341,-0.06747022,0.01693928,0,21.09457,37.95181,-1043.326,0.484,,,
17332,-0.000959931,0.01260128,2.021493,-0.07537489,0.008782828,0,19.87511,30.59692,-1036.352,0.484,,,
17397,0.000890118,0.01094321,2.02268,-0.09164008,0.01431862,0,17.82016,38.46969,-1037.571,0.485,,,
17462,0.00137881,0.009634217,2.024215,-0.0952483,0.0114225,0,18.48715,28.56395,-1032.507,0.489,,,
17527,0.000767945,0.009197885,2.025751,-0.08751499,0.006536031,0,15.74378,34.39676,-1025.047,0.493,,,
17592,-0.002530727,0.006161012,2.027724,-0.09126562,0.002191369,0,19.74182,31.51571,-1027.112,0.498,,,
17657,-0.007539823,0.002373648,2.029731,-0.08426608,-0.007450552,0,15.98791,22.5736,-1005.203,0.506,,,
17722,-0.01230457,-0.000139626,2.031162,-0.09378605,-0.01646965,0,28.64881,19.86085,-1014.805,0.513,,,
17787,-0.01626647,3.49E-05,2.032523,-0.08123123,-0.03447725,0,15.6813,29.01777,-995.3888,0.523,,,
17852,-0.0188321,-0.000610865,2.034234,-0.1071419,-0.06160109,0,16.2073,29.29297,-997.0987,0.534,,,
17917,-0.01628392,-0.00158825,2.035002,-0.08554794,-0.08395923,0,20.63713,34.88734,-993.0058,0.543,,,
17982,-0.01474803,-0.00424115,2.036537,-0.08407249,-0.09949052,0,14.11538,29.35748,-991.5789,0.553,,,
18047,-0.01628392,-0.005532694,2.037672,-0.07482824,-0.1158142,0,7.021889,26.45081,-979.8747,0.562,,,
18112,-0.01495747,-0.005218534,2.03844,-0.06760082,-0.130251,0,18.96042,32.64626,-992.277,0.57,,,
18177,-0.009040806,-0.005585053,2.040395,-0.06499391,-0.145828,0,23.38744,31.11147,-992.135,0.581,,,
18242,-0.001029744,-0.006091199,2.042646,-0.06579494,-0.1524014,0,12.31286,30.24386,-974.3741,0.59,,,
18307,0.007888888,-0.0082205,2.04502,-0.06775446,-0.1662538,0,10.73677,28.22615,-973.5608,0.6,,,
18372,0.01579523,-0.00954695,2.048144,-0.06064946,-0.1644969,0,13.58324,42.96014,-979.2091,0.607,,,
18437,0.01925098,-0.01230457,2.050797,-0.05744971,-0.1557813,0,13.83261,39.78765,-985.4684,0.614,,,
18502,0.02087414,-0.01466077,2.052856,-0.05212132,-0.1454968,0,7.700119,46.17994,-979.9366,0.625,,,
18567,0.02127556,-0.01712168,2.054165,-0.06189867,-0.1356122,0,7.016985,42.61613,-975.0562,0.63,,,
18632,0.0175231,-0.01802925,2.055387,-0.03735275,-0.1287304,0,14.37762,45.94688,-982.4252,0.633,,,
18697,0.01125737,-0.01848304,2.056312,-0.01861957,-0.1192373,0,8.317221,39.95244,-977.0831,0.639,,,
18762,0.006265732,-0.01719149,2.057499,-0.01577463,-0.1149292,0,5.064627,34.81749,-981.0977,0.645,,,
18827,0.003822271,-0.01364847,2.059873,-0.007364979,-0.1149585,0,4.225893,23.06476,-991.5997,0.648,,,
18892,0.004502949,-0.007871435,2.062875,-0.003906015,-0.1148364,0,7.392539,31.22764,-996.3292,0.652,,,
18957,0.003752458,-0.00280998,2.065894,-0.00400463,-0.1150162,0,3.396073,30.46655,-996.7976,0.655,,,
19022,0.001797689,0.002827433,2.068529,-0.00031444,-0.1106853,0,15.59375,35.27292,-993.9518,0.659,,,
19087,0.00137881,0.008988446,2.070781,-0.004427696,-0.1124473,0,14.18659,43.00238,-990.0126,0.662,,,
19152,0.001064651,0.0116588,2.070955,-0.007355528,-0.1152928,0,-1.180922,35.52098,-982.7274,0.665,,,
19217,0.001343903,0.01137955,2.070711,-0.01047184,-0.1136359,0,-0.1708058,36.76196,-982.4502,0.674,,,
19282,0.004607669,0.01015782,2.069768,-0.02451535,-0.1101234,0,7.001018,41.12272,-975.3088,0.675,,,
19347,0.00965167,0.008569567,2.068355,-0.03164566,-0.1064281,0,14.49078,35.29464,-981.4557,0.676,,,
19412,0.01434661,0.006108652,2.066993,-0.02899178,-0.119166,0,4.976836,36.1482,-981.9855,0.677,,,
19477,0.01731367,0.003804818,2.065719,-0.02884666,-0.07903156,0,7.262598,35.75539,-988.0085,0.68,,,
19542,0.02164208,0.004485496,2.064672,-0.03218836,-0.04282551,0,6.001139,35.09365,-991.8528,0.681,,,
19607,0.0275762,0.005166175,2.063992,-0.03808391,-0.02324013,0,9.357889,35.11554,-1000.074,0.679,,,
19672,0.03476696,0.004747296,2.063904,-0.03447379,-0.01169789,0,10.92574,37.31089,-1010.775,0.679,,,
19737,0.03981096,0.006771878,2.063869,-0.04127501,0.01356389,0,5.553576,38.81644,-1021.341,0.679,,,
19802,0.04143412,0.004764749,2.064288,-0.04199519,0.02960793,0,6.278991,35.38204,-1018.177,0.68,,,
19867,0.04101523,-0.001850049,2.064375,-0.04007985,0.05195478,0,12.85793,30.81084,-1016.252,0.682,,,
19932,0.04131195,-0.01033235,2.064061,-0.0550327,0.09830511,0,4.756209,36.6154,-1005.32,0.689,,,
19997,0.04033456,-0.01698205,2.063782,-0.03608858,0.1119525,0,-2.740637,35.77426,-987.5577,0.694,,,
