Time(ms),Roll(Rads),Pitch(Rads),Yaw(Rads),VelX(m/s),VelY(m/s),VelZ(m/s),AccX(mm/s^2),AccY(mm/s^2),AccZ(mm/s^2),Altitude(m),,30 second flight 25/02/16. Flat trim and calibrate before takeoff
0,-0.002844887,-0.03118903,0.01090831,0,0,0,-30.83898,46.28033,-988.9648,0,,
0,-0.002844887,-0.03118903,0.01090831,0,0,0,-30.83898,46.28033,-988.9648,0,,
64,-0.002879793,-0.03113667,0.01096067,0,0,0,-22.78972,46.13551,-989.5557,0,,
142,-0.002932153,-0.0312763,0.01099557,0,0,0,-30.75677,48.12243,-983.856,0,,
220,-0.003019419,-0.03141592,0.01103048,0,0,0,-30.21365,46.81252,-988.5186,0,,
298,-0.00280998,-0.03138102,0.01101303,0,0,0,-23.54511,43.30214,-989.0581,0,,
376,-0.002827433,-0.03143338,0.01097812,0,0,0,-30.7089,46.555,-989.2671,0,,
454,-0.002775073,-0.03143338,0.01097812,0,0,0,-31.49021,46.57168,-983.8486,0,,
532,-0.002775073,-0.03159046,0.01104793,0,0,0,-30.93585,46.66113,-988.3013,0,,
610,-0.002792527,-0.03173009,0.01104793,0,0,0,-29.47926,46.59356,-988.897,0,,
688,-0.002792527,-0.03164282,0.01110029,0,0,0,-31.51235,46.48687,-989.7354,0,,
766,-0.00286234,-0.03178244,0.01111775,0,0,0,-30.9869,46.66952,-980.5029,0,,
844,-0.002879793,-0.03164282,0.0111352,0,0,0,-27.97701,46.43543,-988.8022,0,,
922,-0.002897247,-0.03157301,0.01120501,0,0,0,-26.03517,46.37724,-988.8916,0,,
1000,-0.00296706,-0.03157301,0.01123992,0,0,0,-31.16854,46.42078,-987.8237,0,,
1078,-0.00296706,-0.0315381,0.01125737,0,0,0,-22.68583,46.01275,-988.9199,0,,
1156,-0.002932153,-0.03145083,0.01130973,0,0,0,-28.79484,42.88022,-988.895,0,,
1234,-0.00286234,-0.03136357,0.01134464,0,0,0,-22.93079,46.06437,-983.2798,0,,
1312,-0.002879793,-0.03132866,0.01136209,0,0,0,-30.61232,46.50379,-989.1118,0,,
1390,-0.0029147,-0.03141592,0.01143191,0,0,0,-30.79463,45.87434,-987.3896,0,,
1468,-0.0029147,-0.03143338,0.01141445,0,0,0,-25.16198,46.22535,-988.6211,0,,
1546,-0.0029147,-0.03134611,0.01146681,0,0,0,-25.05771,46.27105,-981.9961,0,,
1624,-0.00296706,-0.03146829,0.01146681,0,0,0,-29.45067,46.38634,-990.584,0,,
1702,-0.002949606,-0.03143338,0.01148427,0,0,0,-32.9185,46.67569,-986.0747,0,,
1780,-0.002984513,-0.0315381,0.01150172,0,0,0,-27.50875,46.41649,-988.5181,0,,
1858,-0.002949606,-0.03132866,0.01148427,0,0,0,-23.21672,45.92431,-981.8887,0,,
1936,-0.003019419,-0.03115413,0.01153663,0,0,0,-24.74212,46.28204,-989.0322,0,,
2014,1.75E-05,3.49E-05,0.01155408,0,0,0,-23.14616,46.1119,-988.9004,0,,
2092,1.75E-05,3.49E-05,0.01151917,0,0,0,-32.02164,46.68768,-988.3613,0,,
2170,5.24E-05,1.75E-05,0.01155408,0,0,0,-23.10888,46.29745,-988.9189,0,,
2248,8.73E-05,0,0.01158899,0,0,0,-31.8948,45.79373,-988.9077,0,,
2326,0.000226893,-0.00015708,0.0116588,0,0,0,-22.55124,46.24653,-988.8989,0,,
2404,0.000279253,-0.000314159,0.01171116,0,0,0,-22.57514,40.47877,-988.8843,0,,
2482,0.000261799,-0.000174533,0.01172861,0,0,0,-26.45384,46.30557,-988.106,0,,
2560,0.000244346,-0.000174533,0.01174607,0,0,0,-26.17042,46.44712,-988.8521,0,,
2638,0.000226893,-0.000244346,0.01174607,0,0,0,-29.98118,46.69447,-980.6738,0,,
2716,0.000191986,-0.000191986,0.01176352,0,0,0,-22.99844,46.13456,-989.3369,0,,
2794,0.000226893,-0.000296706,0.01179843,0,0,0,-31.06874,46.52571,-988.9126,0,,
2872,0.000226893,-0.000471239,0.01176352,0,0,0,-25.08581,46.271,-989.2324,0,,
2950,0.000279253,-0.000541052,0.01178097,0,0,0,-28.09474,44.27682,-988.9038,0,,
3028,0.000279253,-0.000436332,0.01181588,0,0,0,-23.10823,46.29028,-987.481,0,,
3106,0.000296706,-0.000541052,0.01185079,0,0,0,-30.09699,46.82601,-990.7827,0,,
3185,0.000261799,-0.000733038,0.01186824,0,0,0,-27.36718,46.02451,-985.23,0,,
3263,0.000331613,-0.000802852,0.01190315,0,0,0,-21.96425,46.52668,-988.9209,0,,
3341,0.000261799,-0.000925025,0.0119206,0,0,0,-30.43405,46.5038,-988.9082,0,,
3419,0.000261799,-0.000837758,0.01195551,0,0,0,-23.27361,46.32217,-982.0947,0,,
3497,0.000244346,-0.000872665,0.01197296,0,0,0,-22.55309,46.14741,-984.5405,0,,
3575,0.000226893,-0.000890118,0.01199041,0,0,0,-30.12888,46.53076,-988.8462,0,,
3653,0.000226893,-0.000959931,0.01206023,0,0,0,-29.88094,46.54118,-988.876,0,,
3733,0.00020944,-0.000942478,0.01207768,0,0,0,-23.51368,46.25294,-984.0112,0,,
3809,0.00020944,-0.000837758,0.01211258,0,0,0,-23.16399,46.0863,-988.8599,0,,
3887,0.00020944,-0.000837758,0.01211258,0,0,0,-29.23757,46.49481,-987.2808,0,,
3965,0.000226893,-0.000785398,0.01214749,0,0,0,-23.19954,46.19569,-988.981,0,,
4043,0.000244346,-0.000750492,0.01219985,0,0,0,-30.6388,41.89301,-988.8936,0,,
4121,0.000244346,-0.000802852,0.01225221,0,0,0,-30.10325,46.46599,-988.4346,0,,
4199,0.000279253,-0.000942478,0.01226966,0,0,0,-31.50336,46.5756,-988.0605,0,,
4277,0.000244346,-0.000959931,0.01225221,0,0,0,-30.11019,46.58103,-988.8804,0,,
4355,0.000226893,-0.001186824,0.01230457,0,0,0,-30.92605,46.62817,-982.1016,0,,
4433,0.000244346,-0.001186824,0.01235693,0,0,0,-22.77105,46.19251,-989.1196,0,,
4511,0.000226893,-0.001047197,0.01235693,0,0,0,-23.16259,46.14165,-986.9487,0,,
4589,0.00020944,-0.000925025,0.01239184,0,0,0,-26.54714,48.05809,-981.0981,0,,
4667,0,-0.000820305,0.0124442,0,0,0,-23.49316,45.48577,-987.9248,0,,
4745,-8.73E-05,-0.000820305,0.0124791,0,0,0,-29.84345,53.65675,-988.896,0,,
4823,-0.00010472,-0.000872665,0.0124791,0,0,0,-23.32879,46.14957,-988.2754,0,,
4901,-8.73E-05,-0.000890118,0.0124791,0,0,0,-23.71029,46.2331,-987.2651,0,,
4979,-0.000122173,-0.000820305,0.01246165,0,0,0,-23.22197,46.57647,-989.0508,0,,
5057,-8.73E-05,-0.000715585,0.0124791,0,0,0,-24.72138,46.31494,-988.9053,0,,
5135,-6.98E-05,-0.000715585,0.01249656,0,0,0,-30.9641,46.54394,-988.9102,0,,
5213,0,-0.000855211,0.01260128,0,0,0,-30.5367,48.15785,-981.1299,0,,
5291,5.24E-05,-0.000890118,0.01260128,-0.000247992,-0.000339192,0,-28.45543,46.56146,-990.3511,0,,
5369,6.98E-05,-0.000855211,0.01265364,-0.000235111,-0.000146075,0,0,0,0,0,,
5447,3.49E-05,-0.000750492,0.01267109,0.000537882,0.000341745,0,-23.4378,45.40127,-989.5049,0,,
5525,0.00010472,-0.000558505,0.012706,0.000781257,-0.000118222,0,-26.61798,46.33111,-988.2729,0,,
5603,0.00010472,-0.000349066,0.01275836,0.000778786,-0.000138182,0,-23.20817,46.2269,-989.1025,0,,
5681,0.000139626,-0.00020944,0.01279326,0.000556231,-0.000102163,0,-22.87671,46.1374,-988.8711,0,,
5759,0.000139626,-0.000122173,0.01282817,0.000184969,0.000112324,0,-28.20784,51.44609,-983.001,0,,
5837,-0.000349066,-0.000244346,0.01281072,-0.000305047,0.00033304,0,-33.31433,42.84793,-991.9902,0,,
5916,-0.000453786,-0.000820305,0.01302016,0.000416345,0.000564804,0,-28.07258,55.81032,-977.2505,0,,
5993,-0.000523599,-0.000628319,0.01272345,0.000692464,0.000567465,0,-19.92743,53.98149,-994.7284,0,,
6071,-0.000610865,-0.000645772,0.01284562,0.00015235,-0.000289548,0,-22.87487,42.55378,-986.415,0,,
6149,-0.000418879,-0.000698132,0.01281072,-0.000272914,-0.000255519,0,-28.63433,50.21732,-989.0112,0,,
6227,-0.000610865,-0.000715585,0.01279326,-4.27E-05,6.69E-05,0,-28.78224,55.39311,-978.4761,0,,
6305,-0.000680678,-0.000767945,0.01295034,-0.000208611,0.000360636,0,-32.33502,52.86817,-982.4883,0,,
6384,-0.000680678,-0.001134464,0.01298525,-0.000107515,-0.000352949,0,-30.55121,49.6785,-988.1309,0,,
6461,-0.000785398,-0.001343903,0.01291544,-4.28E-05,-5.47E-05,0,-37.92211,53.45311,-972.2813,0,,
6539,-0.000785398,-0.001169371,0.01302016,0.000673658,-0.0004346,0,-39.48508,44.65204,-976.9048,0,,
6617,-0.000610865,-0.00127409,0.01302016,0.000597056,-0.000357992,0,-32.26486,49.89939,-985.8583,0,,
6695,-0.000593412,-0.000977384,0.01321214,0.000437868,0.000129926,0,-40.5841,47.50377,-988.6085,0,,
6773,-0.000226893,-0.000942478,0.01295034,0.000572047,-0.000675409,0,-23.63308,48.04598,-986.6645,0,,
6851,-6.98E-05,-0.000820305,0.01310742,-4.01E-05,-0.000236786,0,-38.7475,52.51778,-987.8057,0,,
6929,-0.000226893,-0.000959931,0.01315978,0.000560952,2.90E-05,0,-12.76045,53.48196,-987.7026,0,,
7007,-0.000244346,-0.000453786,0.01307252,0.000727986,-1.45E-05,0,-14.37636,52.18068,-981.8129,0,,
7085,-0.000279253,-0.000261799,0.01329941,-0.000463927,0.000163222,0,-45.13909,54.79668,-977.9238,0,,
7163,-3.49E-05,-1.75E-05,0.01345649,0.000735716,0.000218298,0,-10.96445,53.9818,-1002.221,0,,
7241,-0.00010472,-0.000349066,0.01368338,0.000247542,0.000202397,0,-47.77824,55.84081,-980.389,0,,
7320,8.73E-05,-0.000349066,0.01340413,0.00134168,0.000166084,0,-31.15612,60.80865,-981.1273,0,,
7397,0.000226893,-0.000296706,0.01371829,0.000846871,0.000589626,0,-16.91382,54.35747,-996.5261,0,,
7475,0.000383972,-0.000698132,0.01356121,-0.000307848,-6.01E-05,0,-29.73269,41.20906,-993.1089,0,,
7553,0.000855211,-0.001518436,0.01391027,-0.000240268,0.000453268,0,-29.47122,53.64339,-976.3003,0,,
7631,0.000872665,-0.001029744,0.01385792,-0.000174959,0.000752182,0,-33.09682,54.54922,-986.7498,0,,
7709,0.000610865,-0.00143117,0.01438151,2.29E-06,0.000791675,0,-34.44295,52.65984,-984.2483,0,,
7787,0.000785398,-0.002286381,0.0143117,0.000496958,0.000213386,0,-14.86275,44.16847,-982.7936,0,,
7865,0.000715585,-0.002042035,0.01420698,0.00061656,0.001210494,0,-14.64185,57.71818,-1006.507,0,,
7943,0.000994838,-0.004677482,0.01593486,0.001108333,0.001517376,0,-44.42775,58.00753,-985.3195,0,,
8021,0.000575959,-0.01633628,0.01926843,0.000645664,0.000269192,0,-54.60071,53.13758,-1034.128,0,,
8099,0.005009095,-0.0288852,0.02785545,0.005487079,0.00362019,0,-55.90884,50.45359,-1070.039,0,,
8177,0.01356121,-0.03635521,0.03609341,0.01077127,-0.000484655,0,-58.17223,11.85136,-1045.163,0,,
8255,0.02281145,-0.04103269,0.0461465,0.01819673,0.006171654,0,-26.14539,47.39314,-1058.167,0,,
8333,0.009075711,-0.03679154,0.05635668,0.0213733,0.006719945,0,-18.89302,29.19811,-1023.384,0,,
8411,-0.01193805,-0.03108431,0.06323328,0.01994583,-0.00143057,0,-16.63199,29.45236,-1009.507,0,,
8489,-0.02108358,-0.02026327,0.07014478,0.01547322,-0.008233512,0,-20.40271,43.14066,-1015.421,0,,
8567,-0.02172935,-0.008761552,0.07304203,0.009167761,-0.008457968,0,-10.02922,61.16871,-1031.717,0,,
8645,-0.02598795,0.003019419,0.07496189,0.001607707,-0.01032682,0,-34.52355,56.09419,-998.3124,0,,
8723,-0.0262672,0.0103149,0.073426,0.0442164,-0.0340027,0,-38.16941,52.69626,-1010.564,0,,
8801,-0.03017674,0.01624902,0.07251843,0.04973647,-0.0256078,0,-28.89459,63.75505,-1002.183,0,,
8878,-0.03199188,0.02052507,0.0704764,0.0763234,-0.05253262,0,-22.52304,63.08266,-1166.117,0.247,,
8957,-0.02670354,0.01956514,0.07012733,0.04228037,-0.04507664,0,-24.67866,49.97368,-1330.036,0.264,,
9037,-0.0297055,0.01715659,0.07052875,0.05919282,-0.04395891,0,-2.324974,60.14183,-1262.492,0.295,,
9112,-0.03131121,0.01703441,0.07061602,0.01964706,-0.09555411,0,-56.24253,43.39422,-1103.734,0.352,,
9190,-0.02965314,0.01574287,0.07026695,0.02652047,-0.1121009,0,-21.27076,63.92133,-995.772,0.425,,
9269,-0.03146829,0.01190315,0.07094763,0.04755442,-0.04789121,0,-31.65198,55.09276,-888.7252,0.511,,
9348,-0.02741912,0.008569567,0.0715585,0.01238532,-0.05711378,0,-27.95798,66.297,-867.6874,0.593,,
9425,-0.01942552,0.007679448,0.07049385,0.053596,-0.08434953,0,-43.10434,69.85477,-535.7615,0.663,,
9502,-0.01356121,0.01223476,0.06848672,0.01796239,-0.1302741,0,-32.63929,65.76801,-650.2186,0.674,,
9580,-0.01036726,0.02204351,0.06653195,0.004388116,-0.1248997,0,-31.26901,64.97335,-784.253,0.682,,
9658,-0.006736971,0.02694788,0.06548475,0.0302325,-0.1367886,0,-22.44718,58.68371,-867.4039,0.684,,
9736,-0.00439823,0.02822197,0.06448992,0.002661377,-0.1372336,0,-21.73481,67.00251,-956.2932,0.672,,
9814,-0.00439823,0.03476696,0.06401867,0.02331179,-0.1555379,0,-22.43239,57.886,-1002.525,0.666,,
9893,-0.005532694,0.04152138,0.06351253,-0.00168112,-0.1621999,0,-5.878793,60.22926,-1017.716,0.658,,
9971,-0.006021386,0.03900811,0.06368706,0.01820688,-0.1646735,0,-21.65908,68.29663,-1038.603,0.648,,
10049,-0.006248279,0.03385939,0.06330309,0.01932062,-0.1523058,0,-17.55062,63.63245,-1036.698,0.646,,
10126,-0.008429941,0.02872812,0.06356489,-0.01789904,-0.1525831,0,-0.9546539,62.69074,-1044.924,0.639,,
10206,-0.008761552,0.0222704,0.06340781,-0.06658692,-0.1778438,0,-3.256463,68.02713,-1015.81,0.643,,
10282,-0.009669124,0.02062979,0.06239552,-0.0534544,-0.1804363,0,-5.215294,67.83003,-989.9403,0.648,,
10360,-0.009442232,0.02389356,0.06208136,-0.07329462,-0.1513579,0,-4.263388,69.69583,-979.0446,0.651,,
10438,-0.008360127,0.02176426,0.06192428,-0.05648412,-0.1766002,0,-6.093787,58.47604,-983.9937,0.654,,
10517,-0.007068583,0.02127556,0.06122615,-0.07485006,-0.1718585,0,-5.421679,68.19006,-991.7631,0.656,,
10594,-0.007993608,0.02232276,0.06099926,-0.07158282,-0.1813845,0,-0.8183031,68.36054,-994.9993,0.656,,
10672,-0.008464847,0.01890191,0.0609469,-0.06884406,-0.1993039,0,-3.593916,60.58544,-986.9255,0.659,,
10750,-0.006597344,0.0130027,0.0609469,-0.0703705,-0.1641408,0,-1.747163,57.44832,-982.495,0.659,,
10829,0.000977384,0.0082205,0.06103416,-0.07221402,-0.1507601,0,-10.05553,61.94231,-982.4327,0.662,,
10908,0.002949606,0.00455531,0.06066765,-0.07459512,-0.128561,0,-14.7986,64.93907,-984.0138,0.66,,
10985,0.000436332,0.002181662,0.06078982,-0.1241488,-0.1418171,0,3.460874,63.50514,-994.1789,0.659,,
11063,-0.003804818,0.00137881,0.06066765,-0.08246902,-0.1566606,0,-1.648724,55.96818,-1001.381,0.658,,
11141,-0.005602507,0.000593412,0.06070255,-0.06924638,-0.1379666,0,-5.604722,61.07612,-1006.2,0.658,,
11218,-0.009337512,0.00153589,0.06040584,-0.05312526,-0.1063051,0,-4.326053,57.16709,-996.0081,0.659,,
11296,-0.008761552,1.75E-05,0.06105161,-0.03574431,-0.1576993,0,0.992201,56.2571,-997.0389,0.668,,
11374,-0.002408554,0.000191986,0.06129596,-0.02183324,-0.1664463,0,0,0,0,0.67,,
11452,0.005829399,0.000942478,0.06143559,-0.03794024,-0.1461158,0,-5.559449,61.55085,-993.708,0.67,,
11530,0.00270526,0.002356195,0.06072,-0.02315097,-0.1390567,0,-6.389277,65.45815,-1003.149,0.666,,
11608,-0.002600541,0.00275762,0.07138397,-0.02776378,-0.1277431,0,-5.614916,85.4864,-1011.677,0.665,,
11686,-0.003630285,0.005427974,0.06976081,-0.02381361,-0.09800436,0,4.205539,80.45845,-943.9603,0.661,,
11765,-0.004677482,0.006213372,0.06967355,-0.03142836,-0.1038284,0,-15.67399,48.94878,-930.8014,0.662,,
11842,-0.004363323,0.003577925,0.06866125,-0.02117372,-0.06815663,0,-16.21955,48.26104,-948.6472,0.657,,
11920,-0.006649705,0.002530727,0.06749188,-0.03176466,-0.0502151,0,-3.491828,55.68816,-952.8851,0.655,,
11998,-0.007766715,0.002513274,0.06675884,-0.01448334,-0.0579906,0,-12.02715,57.48503,-961.762,0.65,,
12076,-0.008970993,0.001692969,0.06508333,0.009007897,-0.1294383,0,-1.154981,62.50388,-973.509,0.641,,
12154,-0.009424779,0.00275762,0.06504842,-0.001206992,-0.14178,0,2.409505,54.62295,-991.3737,0.633,,
12232,0.003752458,0.003909538,0.06370452,0.001723739,-0.1433841,0,-2.919138,54.52135,-1008.944,0.615,,
12310,0.01841322,0.005026548,0.06305874,-0.01827471,-0.0821092,0,-10.44808,52.4245,-999.3426,0.607,,
12388,0.03316126,0.004101524,0.06284931,-0.003191015,-0.04749628,0,-14.88213,56.60188,-1018.21,0.594,,
12466,0.04396484,0.003089233,0.06250024,0.009640397,-0.04865149,0,-4.802848,51.52515,-1036.318,0.582,,
12544,0.05059709,0.002600541,0.06269222,0.01024631,-0.03391476,0,-13.64463,43.36094,-1024.996,0.575,,
12622,0.05342453,0.000977384,0.06279695,-0.003916505,0.02969604,0,-6.529378,47.76189,-1035.165,0.573,,
12701,0.05436701,-0.000663225,0.06295403,0.009480079,0.04611729,0,-16.37916,44.76354,-1022.862,0.57,,
12778,0.04269075,0.001169371,0.06344271,0.01570849,0.1116607,0,-7.908721,40.02576,-1018.008,0.572,,
12856,0.02509783,0.000628319,0.06347763,0.006670145,0.1732385,0,-12.40464,41.75817,-1007.577,0.571,,
12935,0.009442232,0.001902409,0.06386159,0.00167637,0.1980936,0,-12.68981,29.35192,-1010.115,0.571,,
13012,-0.000872665,0.003857178,0.06436774,0.01233809,0.1439426,0,-18.4848,26.21033,-1003.927,0.574,,
13090,-0.006649705,0.006894051,0.06506588,0.0054928,0.1683421,0,-10.06179,49.52057,-1005.569,0.578,,
13169,-0.01792453,0.008866273,0.06503097,0.01826915,0.1897646,0,-14.19305,34.82995,-989.4051,0.584,,
13246,-0.02642429,0.01213004,0.06555457,0.01247518,0.143814,0,-14.92339,33.2378,-1001.132,0.588,,
13324,-0.02684316,0.01246165,0.06567674,0.00541888,0.1365616,0,-5.557794,35.44931,-991.6749,0.593,,
13403,-0.02370157,0.01213004,0.06538004,0.009621585,0.09688796,0,-0.8944824,42.40378,-1005.323,0.597,,
13480,-0.01984439,0.009424779,0.06480408,0.01656096,0.08879101,0,-12.21572,36.63456,-984.0757,0.605,,
13558,-0.01724385,0.007417649,0.06454227,-0.008261831,0.06489302,0,-9.653896,42.12732,-1003.418,0.611,,
13637,-0.01174607,0.004433136,0.06368706,0.005708399,0.05495631,0,-18.51508,30.28833,-991.1967,0.618,,
13714,-0.0084823,0.001047197,0.06300639,-0.00613303,0.05824779,0,-16.98618,37.02074,-989.638,0.623,,
13792,0.000872665,-0.00127409,0.06244788,-0.003610627,0.05951002,0,-12.7995,45.45105,-998.6222,0.627,,
13870,0.01122247,-0.001500983,0.06187192,-0.006265905,0.07034883,0,-12.37114,53.81914,-995.9952,0.633,,
13949,0.01424189,-0.002879793,0.06164503,-0.006674761,0.05688579,0,-9.587915,44.0142,-992.005,0.639,,
14027,0.01335177,-0.003385939,0.06194174,-0.005211202,0.09651985,0,-0.324151,56.37784,-993.8109,0.646,,
14104,0.01021018,-0.000628319,0.06195919,0.005382372,0.1192688,0,-7.035375,46.54085,-999.9259,0.654,,
14182,0.009459685,0.000837758,0.06201155,-0.005744543,0.1330997,0,-10.55152,53.49028,-986.0856,0.658,,
14260,0.005550147,0.004712389,0.06220353,0.02940518,0.0787627,0,-18.22156,41.19687,-972.4551,0.667,,
14338,-0.002600541,0.005916666,0.06269222,0.01578962,0.1211807,0,-19.38933,46.48319,-979.6853,0.674,,
14416,-0.01504474,0.008028515,0.06218608,0.02283042,0.1001492,0,-20.87714,32.48577,-971.1879,0.68,,
14494,-0.02185152,0.008901179,0.06154031,-0.004068007,0.1000868,0,-4.562064,34.96204,-978.5991,0.683,,
14572,-0.01747075,0.008569567,0.06080727,-0.01097785,0.07233698,0,-12.45829,43.6948,-983.8669,0.687,,
14650,-0.008831366,0.008691739,0.06002187,0.00538067,0.04922084,0,-13.41644,44.03598,-988.5381,0.692,,
14728,-0.004031711,0.006928958,0.05871288,-0.01689258,0.07300474,0,-15.66753,47.21166,-985.87,0.695,,
14806,-0.007539823,0.00397935,0.05742133,-0.0151013,0.03216522,0,-15.04005,47.73407,-986.3109,0.699,,
14886,-0.007086037,0.002373648,0.05640904,-0.0162392,-0.03088387,0,-9.081665,40.97141,-994.063,0.703,,
14962,-0.000523599,0.00148353,0.05546656,-0.02176635,0.01570388,0,-18.13158,43.42754,-991.5513,0.706,,
15040,0.01143191,-0.001675516,0.05462881,-0.01698359,0.02592927,0,-5.807903,54.87923,-999.4276,0.71,,
15118,0.0209265,-0.002495821,0.05499532,-0.01384686,0.009252695,0,-1.841366,57.48353,-1016.716,0.713,,
15196,0.02631957,-0.000663225,0.05609488,-0.009649784,0.009958906,0,-19.30617,58.09534,-1012.372,0.719,,
15274,0.02672099,0.001605703,0.05752605,0.009513147,0.05141118,0,-7.187075,52.93516,-1010.203,0.721,,
15353,0.02050762,0.003089233,0.0593412,-0.01607926,-0.004381109,0,-6.349899,46.10411,-998.27,0.728,,
15430,0.01263618,0.002338741,0.06014405,-0.01490529,-0.01027659,0,-13.75942,50.37672,-983.7385,0.735,,
15509,0.009424779,0.000610865,0.06143559,0.02995124,-0.07923473,0,-14.97003,55.0162,-974.6133,0.743,,
15586,0.006248279,0.000680678,0.06220353,0.02071495,-0.04468166,0,-10.95189,47.13016,-970.4434,0.75,,
15665,0.003403392,0.001047197,0.06222099,0.007582214,-0.05292629,0,-7.836172,44.36078,-976.7897,0.754,,
15749,0.00132645,0.000994838,0.06199409,0.009837954,-0.09819569,0,-14.44176,44.70012,-969.2085,0.756,,
15820,-0.007609635,0.007365289,0.0617672,-0.007556303,0.03330635,0,-11.23849,38.83364,-966.3929,0.764,,
15898,-0.0153938,0.01022763,0.06105161,-0.02161648,0.07328522,0,-13.5024,54.18433,-971.2876,0.768,,
15976,-0.03008948,0.01127483,0.0601964,-0.03480146,0.04840039,0,-5.50317,45.17295,-974.9241,0.768,,
16054,-0.04443608,0.01089085,0.05958554,-0.01691063,-0.08475337,0,-6.549043,48.70478,-982.7452,0.772,,
16132,-0.05476843,0.01045452,0.05953318,-0.0150742,-0.04743703,0,-7.703931,40.80436,-967.9473,0.773,,
16210,-0.05850344,0.009285152,0.05874778,-0.01969863,-0.139343,0,-10.49388,54.93697,-996.4426,0.77,,
16291,-0.05696755,0.009738938,0.05785767,-0.02174235,-0.1781455,0,-6.468086,61.44905,-994.9003,0.777,,
16369,-0.0530231,0.01014036,0.05794493,-0.03081644,-0.1363785,0,-14.71258,50.0568,-983.4456,0.772,,
16447,-0.03070034,0.002268928,0.05600762,-0.03297233,-0.08713686,0,-7.346245,52.03224,-1007.221,0.76,,
16525,-0.0222355,-0.001448623,0.05450663,-0.06636772,-0.09489517,0,2.637661,55.94475,-1013.839,0.752,,
16603,-0.01595231,-0.002513274,0.0524646,-0.03916276,-0.06876757,0,-13.71634,56.08395,-991.9351,0.748,,
16681,-0.01115265,-0.002321288,0.05124287,-0.07887447,-0.07194466,0,-2.901917,58.8804,-1002.148,0.741,,
16759,-0.00837758,-0.002687807,0.04982915,-0.05781889,-0.1496399,0,-5.423861,61.44658,-1014.795,0.739,,
16837,-0.004485496,-0.003333579,0.04843289,-0.04087974,-0.1513881,0,-9.815642,61.58847,-1002.44,0.738,,
16916,-0.003473205,-0.004642576,0.04742059,-0.08803755,-0.1835188,0,-3.696936,70.2966,-1007.823,0.733,,
16993,-0.007714355,-0.004031711,0.04792674,-0.05156546,-0.09934603,0,-5.161426,58.9138,-984.7233,0.736,,
17071,-0.008674286,-0.004415683,0.04836307,-0.07942957,-0.1361327,0,-14.3565,55.48185,-990.1098,0.739,,
17149,-0.008831366,-0.00572468,0.04930555,-0.03531485,-0.1424757,0,-11.2528,56.67922,-989.9255,0.738,,
17227,-0.007749262,-0.005689773,0.05096361,-0.03189509,-0.1252745,0,-6.095223,60.81725,-990.5863,0.738,,
17305,-0.006684611,-0.006387905,0.05169665,-0.02050346,-0.0530469,0,-8.139996,63.16706,-994.7457,0.733,,
17383,-0.000122173,-0.005689773,0.05225516,-0.03963808,-0.03887661,0,-10.00772,64.6076,-1002.78,0.73,,
17461,0.007225663,-0.003944444,0.05242969,-0.02994945,-0.004402913,0,-7.707733,59.57473,-1006.388,0.729,,
17539,0.01007055,-0.00312414,0.05227261,-0.0402807,-0.06727155,0,-12.66053,64.66617,-998.0526,0.729,,
17617,0.01373574,-0.002164208,0.05253441,-0.03188855,-0.0917349,0,-19.52725,58.39904,-987.1249,0.728,,
17695,0.02192134,-5.24E-05,0.05330235,-0.04072187,-0.08364932,0,-20.67501,56.33046,-981.8169,0.728,,
17773,0.02251475,0.00137881,0.05379105,-0.05593586,-0.05566185,0,-21.61453,67.37044,-986.267,0.731,,
17851,0.01691224,0.002007129,0.05415757,-0.06234279,-0.0292086,0,-2.880594,61.2688,-990.132,0.729,,
17929,0.00853466,0.003612831,0.05403539,-0.06909554,-0.01687326,0,-9.060939,49.0037,-993.5607,0.731,,
18007,0.002635447,0.003735005,0.05319764,-0.0595653,-0.09236633,0,-18.31424,56.35186,-987.6276,0.731,,
18085,0.003089233,0.000296706,0.05202826,-0.04521707,-0.1050804,0,-5.634398,49.44629,-999.4252,0.729,,
18163,0.00275762,-0.003333579,0.05101598,-0.04237411,-0.09475214,0,-5.92037,56.07708,-1002.024,0.73,,
18241,0.005026548,-0.009599311,0.05070182,-0.03597368,-0.08261316,0,-14.46722,56.43646,-1014.11,0.73,,
18319,0.004363323,-0.008011061,0.05087635,-0.03720481,-0.04575546,0,-9.376852,44.32928,-1014.336,0.73,,
18397,0.003543018,-0.000855211,0.0514174,-0.06896019,-0.01561777,0,-2.921219,66.90708,-1015.121,0.732,,
18475,0.002583087,0.004712389,0.05180137,-0.07713991,-0.007202882,0,-6.179005,56.24919,-1016.376,0.735,,
18553,0.002268928,0.005515241,0.05344198,-0.07344385,0.001871871,0,-5.540732,52.5575,-1006.483,0.738,,
18631,-0.000314159,0.000453786,0.05494297,-0.07000616,0.004166104,0,-4.484479,49.27851,-1012.722,0.741,,
18709,-0.00418879,0.000872665,0.05696755,-0.06581491,0.002043977,0,-14.6758,48.91701,-999.2205,0.747,,
18787,-0.005305801,0.00270526,0.05925393,-0.05754212,-0.02299857,0,-16.05872,53.92016,-991.7178,0.753,,
18865,-0.006422812,0.006475172,0.06136578,-0.07832346,-0.07648493,0,-21.60194,54.09785,-981.217,0.76,,
18943,-0.008307767,0.008115781,0.06283185,-0.03540606,-0.1736271,0,-20.81283,56.89524,-976.0303,0.766,,
19021,-0.01144936,0.008831366,0.06415831,0.002204877,-0.2458897,0,-15.25236,52.69524,-974.688,0.769,,
19099,-0.01452114,-0.000628319,0.06588618,-0.03935857,-0.2039568,0,0.8067234,52.44482,-987.3828,0.776,,
19177,-0.01605703,-0.01413717,0.06723008,-0.05125815,-0.1619514,0,-4.4012,55.10012,-986.2827,0.779,,
19255,-0.01612684,-0.03202679,0.06904522,-0.003738619,-0.1570008,0,-6.088252,61.78155,-969.5904,0.785,,
19333,-0.01518436,-0.04255113,0.06981317,-0.04391346,-0.09078127,0,-18.84061,56.48617,-966.9231,0.79,,
19411,-0.01137955,-0.04989896,0.07063347,-0.02343652,-0.07062127,0,-9.037593,57.31574,-967.7089,0.791,,
19489,-0.007923795,-0.05314528,0.07105236,-0.01559268,-0.04079828,0,-10.41496,52.68878,-991.3332,0.784,,
19567,-0.0055676,-0.04754277,0.07164577,0.01632923,-0.02146666,0,-7.809749,56.13201,-976.6136,0.789,,
19645,-0.005235988,-0.03230604,0.07189011,0.01445935,-0.0104063,0,-20.39087,51.16267,-960.2927,0.791,,
19723,-0.004764749,-0.02001893,0.07072074,0.03234106,-0.02168814,0,-21.59404,49.12151,-970.2875,0.794,,
19801,-0.004590216,-0.01663299,0.06969099,0.072571,-0.02257363,0,-32.68553,53.07124,-969.7963,0.781,,
19879,-0.005183628,-0.01183333,0.06822492,0.1009771,-0.02747992,0,-25.9303,52.91115,-997.74,0.776,,
19957,-0.005288348,-0.003804818,0.06597345,0.1669021,-0.077483,0,-18.8241,48.29419,-999.1876,0.768,,
20035,-0.006544985,0.006981317,0.06527531,0.08187033,-0.02254702,0,-32.94022,53.75311,-991.6374,0.762,,
20113,-0.009040806,0.007400196,0.06452482,0.1234552,-0.06167923,0,-23.12965,52.21283,-988.7829,0.757,,
20191,-0.007731808,0.003263766,0.06405359,0.1265526,-0.09419539,0,-29.53597,51.49499,-1009.689,0.751,,
20269,-0.005061455,0.000366519,0.06417575,0.1271746,-0.09238617,0,-23.7114,58.26978,-1010.698,0.752,,
20347,-0.002007129,0.000436332,0.06518804,0.1637719,-0.1244886,0,-30.04782,49.66773,-1004.063,0.746,,
20425,0.000383972,-0.00286234,0.06613053,0.1138069,-0.1148513,0,-17.8109,64.09882,-1021.439,0.742,,
20503,0.006527531,-0.01017527,0.06852163,0.06773964,-0.06382554,0,-16.61913,57.19627,-1015.79,0.741,,
20581,0.01120501,-0.009494592,0.07063347,0.08265647,-0.05572629,0,-20.10549,53.41606,-996.9921,0.737,,
20659,0.01387537,-0.004415683,0.07216937,0.06101413,-0.03258498,0,-15.26025,52.89708,-994.7311,0.74,,
20737,0.01488766,0.000383972,0.07333874,0.06971861,-0.02380627,0,-15.27045,57.23935,-980.9932,0.743,,
20815,0.01331686,0.005096362,0.07436848,0.1343039,-0.04114338,0,-16.94448,55.04017,-974.8201,0.745,,
20893,0.006859144,0.009215338,0.0752935,0.118486,-0.01825727,0,-22.52203,59.82493,-986.4153,0.745,,
20971,-0.000244346,0.007801622,0.07463028,0.1678932,-0.02426417,0,-12.78045,46.78,-991.1959,0.744,,
21049,-0.004136431,0.002792527,0.07400195,0.2032632,-0.03166248,0,-14.25417,49.06237,-998.8282,0.739,,
21127,-0.01310742,0.002076942,0.07285004,0.2073018,-0.01509207,0,-20.3748,52.61357,-1013.142,0.737,,
21205,-0.02483604,-0.000331613,0.07066838,0.30078,-0.06849729,0,-18.54139,37.56115,-1005.198,0.734,,
21283,-0.03387684,-0.003926991,0.06853908,0.3249866,-0.1054603,0,-26.92879,47.53664,-1006.351,0.731,,
21361,-0.03764675,-0.005637414,0.06663667,0.3163159,-0.1320378,0,-24.63266,41.19554,-1017.978,0.728,,
21439,-0.02953097,-0.007295476,0.06524041,0.284228,-0.1446038,0,-17.07332,44.50262,-1024.334,0.73,,
21520,-0.01921607,-0.008447394,0.06335545,0.05284686,-0.1773915,0,-12.18089,57.96485,-1011.103,0.733,,
21595,-0.01073377,-0.007819075,0.06237806,-0.006646615,-0.09311765,0,-15.63457,49.21936,-1000.942,0.739,,
21673,-0.005445427,-0.007208209,0.06166248,0.006070561,-0.06888224,0,-14.229,42.79563,-992.4699,0.738,,
21751,0.004118977,-0.007941248,0.06082472,0.09215011,-0.0672166,0,-21.04477,50.60084,-1007.878,0.741,,
21829,0.0135263,-0.01073377,0.06033603,0.09683576,-0.06663754,0,-22.81359,48.62404,-969.9415,0.748,,
21908,0.01593486,-0.008674286,0.0617672,0.05999223,-0.04634496,0,-9.255699,49.87206,-994.4844,0.748,,
21985,0.01860521,-0.005585053,0.06429793,0.08241529,-0.03618811,0,-20.59982,56.65297,-979.8322,0.751,,
22063,0.01717404,-0.003543018,0.06684611,0.03414586,0.00255741,0,-9.626213,56.50559,-990.7206,0.754,,
22141,0.01279326,-0.002164208,0.06897541,0.04069922,0.01324483,0,-16.73685,54.44879,-993.6239,0.759,,
22219,0.009494592,-0.003001966,0.07014478,0.03748586,0.02566537,0,-24.89945,46.55442,-990.942,0.759,,
22297,0.009791297,-0.009075711,0.07052875,0.0119116,0.0411451,0,-23.74362,59.96056,-1005.036,0.76,,
22375,0.008098328,-0.02377138,0.06981317,0.01878988,0.04423692,0,-21.69977,49.80446,-997.0222,0.764,,
22453,0.004101524,-0.03719297,0.06841691,0.04418218,0.06432023,0,-21.01791,44.09947,-987.9692,0.766,,
22531,0.002251475,-0.04541347,0.06693338,0.0744094,0.05153852,0,-19.57706,45.85828,-980.2388,0.766,,
22609,0.004066617,-0.04893903,0.06503097,0.0501602,-0.01642866,0,-26.36529,46.22409,-966.5146,0.77,,
22687,0.001902409,-0.03858923,0.06302384,0.03922822,0.02087174,0,-31.0852,37.87529,-977.2296,0.771,,
22765,-0.003298672,-0.0225322,0.06194174,0.0432946,0.01189143,0,-24.78417,45.12078,-983.7673,0.771,,
22843,-0.004049164,-0.0153589,0.0601964,0.03505632,0.04163159,0,-29.67766,38.49934,-975.9964,0.772,,
22921,0.002548181,-0.01144936,0.05942846,0.05133224,0.03898112,0,-36.37249,48.45814,-986.3089,0.773,,
22999,0.007714355,-0.007295476,0.05784021,0.03594829,0.01975154,0,-34.03718,42.0495,-996.4069,0.769,,
23077,0.006562438,-0.002216568,0.05424483,0.03657287,0.04855885,0,-41.86023,47.94939,-995.3417,0.764,,
23155,0.001954769,0.001134464,0.05120796,0.02489063,0.05666965,0,-38.27037,47.62874,-991.2352,0.759,,
23233,0.005689773,0.006161012,0.04646066,0.01305651,0.09951573,0,-32.5424,52.38751,-999.302,0.758,,
23311,0.007836528,0.009162978,0.04148648,0.007425713,0.09024613,0,-25.40299,43.4925,-1025.436,0.752,,
23389,0.008639379,0.005113815,0.03618068,0.004372613,0.05739101,0,-31.14836,40.04237,-1020.128,0.747,,
23467,0.007819075,-0.001553343,0.03122394,-0.006333162,0.05499075,0,-30.39875,45.98977,-1028.2,0.747,,
23545,0.004031711,-0.009477138,0.02724459,-0.006304063,0.05557062,0,-29.35649,40.73666,-1019.728,0.748,,
23623,-0.005969026,-0.0150971,0.02438225,0.01601731,0.0458021,0,-22.01402,34.22105,-1019.54,0.747,,
23701,-0.01638864,-0.01729621,0.02179916,0.02541292,0.02623668,0,-28.71422,31.48413,-1014.227,0.751,,
23779,-0.01843068,-0.01581268,0.0198793,0.02345414,0.01541035,0,-22.79037,30.7264,-1022.476,0.754,,
23857,-0.0172264,-0.01293289,0.01877974,0.01177461,0.01207711,0,-26.5993,41.66917,-1016.858,0.758,,
23935,-0.02106612,-0.008237954,0.01761037,0.003087037,0.004506418,0,-35.40611,39.51691,-996.2264,0.766,,
24013,-0.03380703,-0.004974188,0.01673771,-0.01545018,-0.06771643,0,-30.37634,37.05729,-980.7466,0.773,,
24091,-0.04392993,-0.005148721,0.0156556,0.01633655,-0.1340408,0,-36.90694,33.8917,-962.2379,0.787,,
24169,-0.05180137,-0.007243116,0.01474803,0.02609038,-0.1764892,0,-32.63391,27.02043,-962.5071,0.792,,
24247,-0.05333726,-0.00567232,0.01403245,0.02225949,-0.1092446,0,-40.95678,39.89879,-960.8958,0.802,,
24325,-0.05213298,-0.002286381,0.01469567,0.01253291,-0.3477837,0,-31.60427,43.67223,-956.6252,0.805,,
24403,-0.04982915,0.003892084,0.01553343,0.0115266,-0.435948,0,-36.61915,46.86792,-964.5592,0.803,,
24481,-0.04382522,0.01019272,0.01637119,0.01086154,-0.3289791,0,-31.54643,57.68568,-973.4515,0.802,,
24559,-0.03256784,0.006527531,0.01832596,0.00973859,-0.1910816,0,-25.6899,59.00099,-975.5804,0.801,,
24637,-0.02151991,-0.001902409,0.02172935,0.03819095,-0.25623,0,-24.73322,63.00922,-986.0956,0.799,,
24715,-0.006789331,-0.006475172,0.02818707,0.0239995,-0.1579591,0,-30.27226,58.72544,-1002.507,0.791,,
24793,0.00970403,-0.006719518,0.03656465,-0.009884381,-0.1805373,0,-27.16049,66.90819,-994.7662,0.785,,
24871,0.02640683,-0.00593412,0.04785693,-0.01513878,-0.2889066,0,-27.65154,78.43276,-1008.391,0.78,,
24949,0.02989749,-0.002443461,0.05881759,0.09821811,-0.3500472,0,-8.622101,71.4613,-1000.6,0.785,,
25028,0.02771583,0.003508112,0.06895795,0.06707092,-0.3317108,0,-13.07245,76.65636,-963.4308,0.782,,
25105,0.02251475,0.006091199,0.07490953,0.03264188,-0.2788514,0,-19.74754,65.53924,-968.219,0.769,,
25183,0.0169646,0.007644542,0.08155923,-0.004364501,-0.2334358,0,-15.77288,83.76753,-990.5776,0.761,,
25261,0.02111848,0.009337512,0.08515462,-0.01384581,-0.205838,0,-23.50962,80.92044,-999.9655,0.754,,
25339,0.02635447,0.008744099,0.08798204,-0.0204835,-0.1790074,0,-11.79969,75.31017,-990.5609,0.746,,
25417,0.02520255,0.006597344,0.08995426,-0.01642786,-0.1480511,0,-16.86719,62.72768,-1002.058,0.74,,
25495,0.01820378,0.000314159,0.09124582,-0.01734757,-0.09725581,0,-14.65766,70.93328,-997.6653,0.734,,
25573,0.01473058,-0.007766715,0.09185668,-0.009865861,-0.08648938,0,-7.671443,69.16963,-969.7686,0.74,,
25651,0.01881465,-0.01048943,0.09159488,-0.002477054,-0.0545891,0,-18.70185,68.92133,-1005.27,0.727,,
25729,0.02021091,-0.01104793,0.09201375,-0.000972907,-0.03649855,0,-13.84632,68.077,-1005.823,0.721,,
25807,0.02026327,-0.01118756,0.0919614,0.000787096,-0.03073301,0,-9.625364,67.8259,-1008.093,0.721,,
25885,0.02015855,-0.01136209,0.09229301,0.005264389,-0.02477249,0,-6.703394,71.56988,-1009.954,0.719,,
25963,0.02021091,-0.0111352,0.09204867,0.01256666,-0.01805046,0,-12.1939,62.04404,-1011.216,0.717,,
26041,0.02021091,-0.0111352,0.09224065,0.016637,-0.0157811,0,-7.116366,67.06059,-1014.922,0.717,,
26119,0.004049164,0.004694935,0.09459685,0.0953889,0.06802614,0,-11.11203,54.00641,-987.4583,0.709,,
26197,0.004276057,0.005480334,0.09791297,0.1058491,0.06883056,0,-13.78689,48.71406,-987.6156,0.708,,
26275,0.009529497,0.005689773,0.1016131,0.08882888,0.098368,0,-16.82247,62.27967,-1011.192,0.706,,
26353,0.01446878,0.006422812,0.1056273,0.09488003,0.1115457,0,-18.2696,54.23465,-1013.58,0.704,,
26431,0.01703441,0.008988446,0.1085071,0.09864884,0.1206002,0,-26.82163,54.33027,-1022.117,0.701,,
26509,0.009512044,0.008255407,0.1102524,0.1464518,0.06381787,0,-24.35963,46.7337,-1029.864,0.7,,
26587,0.001954769,0.009407324,0.1112298,0.1928436,-0.01158709,0,-14.19871,45.94373,-1028.53,0.697,,
26665,0.002234021,0.01111775,0.111352,0.2008281,-0.05267549,0,-25.04019,62.52876,-1023.987,0.697,,
26743,0.001396263,0.007976155,0.1117185,0.2296636,-0.09067962,0,-17.17774,40.67731,-1033.377,0.701,,
26821,-0.003525565,-0.001413717,0.1114742,0.2155318,-0.08857692,0,-13.22763,41.38067,-1019.616,0.713,,
26899,-0.003019419,-0.008709193,0.1117011,0.2634882,-0.07013383,0,-22.14585,48.14927,-1004.627,0.719,,
26977,0.001972222,-0.01094321,0.1106888,0.1128731,0.06066186,0,-30.07448,45.29607,-981.5426,0.73,,
27055,0.004363323,-0.009878563,0.1090133,0.04023875,0.04913247,0,-25.36046,50.30521,-974.8234,0.743,,
27133,0.005009095,-0.006824237,0.1062556,0.01358099,0.09799445,0,-19.84538,51.18815,-969.7621,0.753,,
27210,0.007470009,-0.004852015,0.1038122,0.005350118,0.09225941,0,-31.76461,47.10686,-965.3403,0.762,,
27289,0.004799656,-0.00429351,0.1011942,-0.01133534,0.1169474,0,-22.07075,58.31709,-956.5069,0.767,,
27367,-0.007819075,-0.006003933,0.09793042,-0.01235219,0.06282219,0,-15.73794,54.4695,-967.4694,0.78,,
27445,-0.02614503,-0.01089085,0.09491101,-0.02696366,-0.03299158,0,-25.96189,37.0534,-957.0848,0.786,,
27522,-0.04019493,-0.0161792,0.09190904,7.26E-05,0.03521958,0,-29.29449,40.24252,-972.6108,0.787,,
27600,-0.04834562,-0.0214501,0.087441,0.0029848,0.01460482,0,-27.36953,55.60638,-973.1007,0.788,,
27679,-0.04949754,-0.02645919,0.082397,0.008136174,0.04698428,0,-22.46372,49.00279,-981.1475,0.789,,
27757,-0.04769985,-0.03035128,0.0758171,0.02073516,0.1125775,0,-25.24206,53.1053,-979.8725,0.794,,
27834,-0.04487242,-0.02968805,0.06885324,0.04069014,0.05204942,0,-20.44694,52.68252,-975.981,0.794,,
27913,-0.0421497,-0.02595305,0.06045821,0.03324889,0.09625773,0,-28.7171,46.74939,-1000.03,0.787,,
28008,-0.03377212,-0.0209265,0.0543321,0.02893942,0.1143357,0,-31.25683,41.88175,-998.9298,0.787,,
28084,-0.0167028,-0.01555088,0.04502949,0.03418249,0.03760872,0,-24.56616,57.3842,-1010.507,0.78,,
28162,-0.006946411,-0.01172861,0.03639011,0.008330005,0.04110345,0,-30.72601,54.09518,-1006.037,0.781,,
28240,-0.005061455,-0.008831366,0.02928662,0.01374193,0.0451772,0,-28.92136,51.42031,-1003.693,0.775,,
28318,-0.01424189,-0.00296706,0.0214501,0.02858083,0.02930761,0,-29.6396,48.58329,-1010.13,0.772,,
28396,-0.02471386,0.00020944,0.01340413,0.0357477,0.03405523,0,-32.94049,52.98465,-1010.03,0.772,,
28474,-0.02663372,0.000261799,0.006422812,0.01918966,-0.00068584,0,-21.94792,45.93959,-1003.336,0.773,,
28552,-0.02661627,-0.001640609,0.001448623,0.03475684,-0.06492187,0,-31.55726,51.87229,-1009.137,0.775,,
28630,-0.02696534,-0.004450589,-0.001658063,0.05529431,-0.03284794,0,-23.42756,48.84095,-1004.563,0.775,,
28708,-0.02740167,-0.003926991,-0.004834562,0.05122716,-0.113609,0,-30.82822,48.88227,-993.8938,0.78,,
28786,-0.02501057,-0.002548181,-0.007627089,0.05820522,-0.05237337,0,-30.21718,48.2925,-984.6826,0.792,,
28864,-0.02361431,-0.00270526,-0.009913471,0.0814603,-0.03261393,0,-30.26169,49.78241,-959.9254,0.803,,
28942,-0.02656391,-0.000488692,-0.01125737,0.05356773,-0.06557046,0,-27.49154,45.87873,-963.0075,0.806,,
29020,-0.02761111,0.00296706,-0.01130973,0.04095964,-0.0698864,0,-28.09692,46.53809,-955.9063,0.816,,
29098,-0.02427753,0.006719518,-0.0108734,0.02630569,-0.07565013,0,-21.30697,63.42125,-971.598,0.814,,
29176,-0.02167699,0.007923795,-0.009599311,0.01368889,-0.1358512,0,-14.68973,54.47456,-989.6481,0.811,,
29254,-0.01684243,0.007522369,-0.006283185,0.007242015,-0.201484,0,-24.19751,68.44041,-997.722,0.804,,
29332,-0.01059415,0.007888888,-0.002111848,0.00442586,-0.2300287,0,-22.04573,69.64436,-1008.852,0.8,,
29410,0.001204277,0.007539823,0.0029147,0.003827909,-0.1619084,0,-25.22823,74.02573,-1030.764,0.799,,
29489,0.00424115,0.003490658,0.008290314,0.00561113,-0.1499365,0,-28.06853,71.61652,-1011.819,0.799,,
29567,0.000890118,0.000349066,0.01366593,-0.0155476,-0.1951612,0,-30.24634,68.77222,-992.6605,0.803,,
29645,-0.003508112,0.00015708,0.01858776,-0.005042167,-0.2889385,0,-27.00167,66.23447,-970.6061,0.811,,
29723,-0.004852015,0.002740167,0.02289872,0.003966442,-0.2513878,0,-31.46514,69.54832,-959.0134,0.811,,
29801,-0.003909538,0.004136431,0.02686062,-0.01685199,-0.08869643,0,-23.83729,69.83432,-964.0616,0.814,,
29879,-0.001727876,0.003700098,0.02864085,-0.02988777,-0.1745527,0,-18.98971,65.13318,-966.8558,0.813,,
29957,0.00153589,0.005811946,0.02949606,-0.04708763,-0.295538,0,-31.57665,59.93129,-979.0956,0.813,,
