Time(ms),Roll(Rads),Pitch(Rads),Yaw(Rads),VelX(m/s),VelY(m/s),VelZ(m/s),AccX(g x 10^-3),AccY(g x 10^-3),AccZ(g x 10^-3),Altitude(m)
0,0.0007679448,0.001361357,0.04948008,0,0,0,-15.49662,37.90435,-988.7651,0,
0,0.0007679448,0.001361357,0.04948008,0,0,0,-15.49662,37.90435,-988.7651,0
6,0.0007679448,0.001361357,0.04948008,0,0,0,-15.49662,37.90435,-988.7651,0
22,0.0007853982,0.001396263,0.04949754,0,0,0,-15.70806,37.96199,-988.8428,0
37,0.0007853982,0.001396263,0.04949754,0,0,0,-15.70806,37.96199,-988.8428,0
53,0.0008028515,0.001413717,0.04949754,0,0,0,-15.77327,37.89508,-988.8936,0
68,0.0008028515,0.001413717,0.04949754,0,0,0,-15.77327,37.89508,-988.8936,0
84,0.0008028515,0.00143117,0.04948008,0,0,0,-15.84312,37.9076,-988.8672,0
99,0.0008028515,0.00143117,0.04948008,0,0,0,-15.84312,37.9076,-988.8672,0
115,0.0008028515,0.001448623,0.04949754,0,0,0,-15.8922,37.91865,-988.8706,0
131,0.0008028515,0.001466077,0.04951499,0,0,0,-15.79742,37.92929,-988.8726,0
146,0.0008028515,0.001466077,0.04951499,0,0,0,-15.79742,37.92929,-988.8726,0
162,0.0008028515,0.00148353,0.04949754,0,0,0,-15.81563,37.90616,-988.8696,0
178,0.0007853982,0.001500983,0.04949754,0,0,0,0,0,0,0
193,0.0007853982,0.001518436,0.04949754,0,0,0,0,0,0,0
209,0.0007853982,0.001518436,0.04949754,0,0,0,-15.85301,37.90643,-988.8701,0
224,0.0007853982,0.00153589,0.04951499,0,0,0,-15.82253,37.99165,-988.8726,0
240,0.0007853982,0.001553343,0.04953244,0,0,0,-15.76975,37.91789,-989.5439,0
255,0.0007853982,0.001553343,0.04953244,0,0,0,0,0,0,0
271,0.0007853982,0.001570796,0.04953244,0,0,0,-15.83601,37.90866,-989.0815,0
287,0.0008028515,0.001570796,0.0495499,0,0,0,-15.89106,37.91019,-989.1011,0
302,0.0008203047,0.001605703,0.04958481,0,0,0,-15.84476,37.9736,-988.2686,0
318,0.0008203047,0.001605703,0.04958481,0,0,0,0,0,0,0
333,0.0008203047,0.001623156,0.04958481,0,0,0,0,0,0,0
349,0.0008203047,0.001623156,0.04958481,0,0,0,-15.80097,37.86424,-989.0342,0
365,0.0008203047,0.001623156,0.04958481,0,0,0,-15.80097,37.86424,-989.0342,0
380,0.0008028515,0.001658063,0.04961971,0,0,0,0,0,0,0
396,0.0008028515,0.001640609,0.04961971,0,0,0,-15.92749,37.91304,-988.9082,0
415,0.0008203047,0.001658063,0.04961971,0,0,0,-15.82906,37.96717,-988.8765,0
427,0.0008203047,0.001658063,0.04961971,0,0,0,-15.82906,37.96717,-988.8765,0
443,0.0008203047,0.001658063,0.04963716,0,0,0,-15.76942,37.9773,-988.8726,0
458,0.0008028515,0.001658063,0.04967207,0,0,0,-15.76926,39.33495,-988.8755,0
474,0.0008028515,0.001658063,0.04967207,0,0,0,-15.76926,39.33495,-988.8755,0
490,0.0007679448,0.001570796,0.04968952,0,0,0,-24.21174,36.57747,-980.4399,0
505,0.0007679448,0.001570796,0.04968952,0,0,0,-24.21174,36.57747,-980.4399,0
521,0.0007853982,0.001466077,0.04968952,0,0,0,-23.69376,31.26993,-989.042,0
536,0.0007853982,0.001466077,0.04968952,0,0,0,-23.69376,31.26993,-989.042,0
552,0.0009424778,0.00143117,0.04972443,0,0,0,-14.93408,31.94821,-989.2969,0
567,0.0009599311,0.001413717,0.04974188,0,0,0,-15.91516,38.69996,-988.936,0
583,0.0009424778,0.00143117,0.04974188,0,0,0,-15.95137,37.87248,-982.0181,0
599,0.0009424778,0.00143117,0.04974188,0,0,0,-15.95137,37.87248,-982.0181,0
615,0.0009424778,0.001448623,0.04977679,0,0,0,-15.93038,38.01667,-981.2139,0
630,0.0009424778,0.001448623,0.04979424,0,0,0,-17.74606,37.97203,-988.0293,0
645,0.0009424778,0.001448623,0.0498117,0,0,0,-16.42521,38.04521,-989.2856,0
661,0.0009424778,0.001466077,0.04982915,0,0,0,-16.4128,38.03695,-988.4932,0
677,0.0009599311,0.00148353,0.0498466,0,0,0,-15.61501,34.45126,-988.73,0
692,0.0009773844,0.00148353,0.0498466,0,0,0,-15.9235,30.96598,-988.8682,0
708,0.001064651,0.001466077,0.0498466,0,0,0,-17.59529,32.47766,-988.8281,0
723,0.001082104,0.001466077,0.0498466,0,0,0,0,0,0,0
739,0.001064651,0.001500983,0.0498466,0,0,0,-15.55543,38.56195,-988.8618,0
755,0.001082104,0.001500983,0.04986406,0,0,0,-15.64167,37.38952,-988.8794,0
770,0.001082104,0.001518436,0.04986406,0,0,0,-15.73803,37.80609,-988.873,0
786,0.001082104,0.001518436,0.04986406,0,0,0,-15.73803,37.80609,-988.873,0
802,0.001117011,0.001518436,0.04988151,0,0,0,-15.69549,39.24397,-987.3594,0
817,0.001117011,0.001518436,0.04988151,0,0,0,-15.69549,39.24397,-987.3594,0
833,0.001117011,0.001518436,0.04989896,0,0,0,-17.30349,38.79193,-981.9517,0
848,0.001099557,0.00148353,0.04991641,0,0,0,0,0,0,0
864,0.001099557,0.00148353,0.04993387,0,0,0,-16.40819,38.64633,-988.4146,0
880,0.001082104,0.001500983,0.04995132,0,0,0,-15.73131,37.79049,-986.5366,0
895,0.001082104,0.001500983,0.04995132,0,0,0,-15.73131,37.79049,-986.5366,0
911,0.001099557,0.001500983,0.04995132,0,0,0,-15.88797,37.90958,-981.2974,0
926,0.001099557,0.001500983,0.04995132,0,0,0,-15.98631,38.16726,-980.1221,0
942,0.001099557,0.001518436,0.04996878,0,0,0,-15.8816,38.12474,-983.7139,0
957,0.001099557,0.00153589,0.04996878,0,0,0,-15.93676,38.07663,-981.9321,0
973,0.001099557,0.001553343,0.04996878,0,0,0,-15.91987,38.07555,-980.8057,0
989,0.001082104,0.001570796,0.04996878,0,0,0,-15.89256,37.97235,-981.4043,0
1005,0.001082104,0.00158825,0.04998623,0,0,0,-15.85613,37.97364,-984.4248,0
1020,0.001082104,0.00158825,0.04998623,0,0,0,-15.85613,37.97364,-984.4248,0
1036,0.001099557,0.001553343,0.05000368,0,0,0,-20.34192,35.1692,-981.4595,0
1051,0.001117011,0.001518436,0.04998623,0,0,0,-20.03351,37.90898,-977.0522,0
1067,0.001117011,0.001518436,0.04998623,0,0,0,-20.03351,37.90898,-977.0522,0
1082,0.001099557,0.001518436,0.05000368,0,0,0,-15.03561,38.38275,-981.8857,0
1098,0.001082104,0.001518436,0.05002113,0,0,0,-18.82463,38.05626,-989.7061,0
1119,0.001064651,0.001500983,0.05003859,0,0,0,-17.36289,38.01352,-989.4199,0
1129,0.001064651,0.001518436,0.05005604,0,0,0,-15.18622,37.72517,-988.9624,0
1145,0.001064651,0.001518436,0.05005604,0,0,0,-15.18622,37.72517,-988.9624,0
1160,0.001047197,0.001518436,0.05005604,0,0,0,-15.38808,36.02151,-988.8076,0
1176,0.001064651,0.00153589,0.05009095,0,0,0,-15.54281,39.30815,-988.8501,0
1191,0.001064651,0.001570796,0.05009095,0,0,0,-15.93994,37.182,-988.8774,0
1207,0.001064651,0.00158825,0.05009095,0,0,0,-19.32629,37.95685,-988.8867,0
1223,0.001064651,0.00158825,0.05009095,0,0,0,-19.32629,37.95685,-988.8867,0
1238,0.001047197,0.00148353,0.05009095,0,0,0,-21.78377,38.30421,-988.8755,0
1254,0.001047197,0.00148353,0.0501084,0,0,0,-15.17178,37.9286,-988.8701,0
1269,0.001047197,0.00148353,0.0501084,0,0,0,0,0,0,0
1285,0.001047197,0.001500983,0.0501084,0,0,0,-16.07953,37.92169,-988.8701,0
1301,0.001012291,0.00153589,0.05012586,0,0,0,-16.04162,38.05691,-979.8867,0
1316,0.001012291,0.00153589,0.05012586,0,0,0,-16.04162,38.05691,-979.8867,0
1332,0.001099557,0.00153589,0.05012586,0,0,0,-16.04983,32.99739,-989.957,0
1348,0.001082104,0.001518436,0.05012586,0,0,0,-19.03614,39.66106,-988.8945,0
1363,0.001082104,0.001518436,0.05012586,0,0,0,-19.03614,39.66106,-988.8945,0
1379,0.001082104,0.001500983,0.05014331,0,0,0,-19.67637,38.06187,-989.0132,0
1394,0.001099557,0.00148353,0.05016076,0,0,0,-17.33916,34.6037,-988.6807,0
1410,0.001151917,0.00143117,0.05017821,0,0,0,-25.67353,29.0631,-995.6221,0
1425,0.001204277,0.001343903,0.05017821,0,0,0,-23.28971,35.80944,-987.4702,0
1441,0.001204277,0.00127409,0.05021312,0,0,0,-15.27451,36.88224,-985.021,0
1457,0.001204277,0.00127409,0.05021312,0,0,0,-15.27451,36.88224,-985.021,0
1472,0.001204277,0.001256637,0.05021312,0,0,0,0,0,0,0
1488,0.001204277,0.00127409,0.05021312,0,0,0,-14.66933,38.13189,-988.0615,0
1504,0.001186824,0.00127409,0.05023058,0,0,0,-15.57554,37.82644,-988.1167,0
1519,0.001186824,0.00127409,0.05023058,0,0,0,-15.57554,37.82644,-988.1167,0
1535,0.001186824,0.001291544,0.05026548,0,0,0,-15.73766,38.06158,-985.2085,0
1550,0.001151917,0.001308997,0.05026548,0,0,0,-17.44327,38.11211,-980.0503,0
1566,0.001151917,0.001291544,0.05026548,0,0,0,-16.39493,37.9036,-988.8291,0
1581,0.001151917,0.001291544,0.05026548,0,0,0,-15.08627,37.86589,-989.8418,0
1597,0.001134464,0.001308997,0.05030039,0,0,0,-15.55612,38.10735,-980.3101,0
1613,0.001134464,0.00132645,0.05030039,0,0,0,-15.70964,38.08192,-981.3237,0
1628,0.001134464,0.00132645,0.05030039,0,0,0,-15.70964,38.08192,-981.3237,0
1644,0.001134464,0.00132645,0.05031784,0,0,0,-15.77688,38.06383,-982.5327,0
1661,0.001134464,0.00132645,0.0503353,0,0,0,-15.89989,38.08561,-979.8096,0
1675,0.001134464,0.00132645,0.0503353,0,0,0,-17.37893,38.08838,-981.9004,0
1691,0.001117011,0.001308997,0.0503353,0,0,0,-19.33859,38.19584,-980.8667,0
1706,0.001117011,0.001308997,0.05035275,0,0,0,-19.02501,38.17902,-981.2188,0
1722,0.001117011,0.001256637,0.05038766,0,0,0,-15.32507,38.03538,-982.5254,0
1738,0.001134464,0.001256637,0.05040511,0,0,0,-15.79775,37.958,-990.1001,0
1753,0.001134464,0.001256637,0.05040511,0,0,0,-16.19945,37.99264,-989.3716,0
1769,0.001134464,0.001256637,0.05040511,0,0,0,-16.19945,37.99264,-989.3716,0
1784,0.001117011,0.001239184,0.05044002,-0.0003325666,0.0003170972,0,-15.96814,39.45871,-983.7651,0
1801,0.001064651,0.001239184,0.05042256,-0.0004110477,0.0006795608,0,-15.52283,43.80868,-989.6543,0
1815,0.001047197,0.00122173,0.05044002,-0.0004547427,0.0007636308,0,-15.70579,41.91644,-987.438,0
1831,0.001047197,0.00122173,0.05044002,-0.0004547427,0.0007636308,0,-15.70579,41.91644,-987.438,0
1847,0.001082104,0.001204277,0.05044002,-0.0005247801,0.0004292054,0,-15.86719,37.04692,-989.1006,0
1862,0.001099557,0.001204277,0.05045747,-0.0005465021,0.0003688702,0,-15.88158,37.71781,-989.02,0
1878,0.001117011,0.001204277,0.05047492,-0.0005581683,0.0003373608,0,-15.89738,37.45648,-988.9712,0
1894,0.001117011,0.001204277,0.05047492,-0.0005711897,0.0003156747,0,-15.83357,38.06565,-988.8169,0
1909,0.001117011,0.001204277,0.05047492,-0.0005711897,0.0003156747,0,-15.83357,38.06565,-988.8169,0
1925,0.001117011,0.001186824,0.05049237,-0.0005745917,0.0003087928,0,-15.78941,37.80458,-988.8867,0
1946,0.001117011,0.001186824,0.05049237,-0.0005745917,0.0003087928,0,-15.78941,37.80458,-988.8867,0
1956,0.001117011,0.001186824,0.05050983,-0.0005751111,0.0003217332,0,-15.81987,37.97121,-987.2334,0
1971,0.001117011,0.001186824,0.05050983,-0.0005775586,0.0003288165,0,-15.85834,37.95817,-989.54,0
1987,0.001099557,0.001151917,0.05052728,-0.0005822574,0.0003411554,0,-15.89323,37.90752,-988.0483,0
2003,0.001099557,0.001151917,0.05050983,-0.0005733737,0.000348633,0,-15.72137,37.90166,-988.7446,0
2018,0.001099557,0.001134464,0.05052728,-0.0005639479,0.0003579163,0,-15.76019,37.93465,-988.9458,0
2034,0.001117011,0.001134464,0.05052728,-0.0005624692,0.0003682573,0,-15.86462,37.92259,-988.9536,0
2050,0.001117011,0.001099557,0.05054473,-0.0005576914,0.0003952369,0,-15.85742,37.97593,-988.8423,0
2065,0.001117011,0.001082104,0.05056219,-0.0005503042,0.0004006694,0,-15.7872,37.89575,-988.8608,0
2081,0.001099557,0.001082104,0.05056219,-0.0005413894,0.000401973,0,-15.78938,37.85452,-988.8716,0
2096,0.001099557,0.001082104,0.05056219,-0.0005413894,0.000401973,0,-15.78938,37.85452,-988.8716,0
2112,0.001099557,0.001082104,0.05057964,-0.0005392266,0.0004038666,0,-15.88443,37.87592,-988.8682,0
2127,0.001117011,0.001082104,0.05057964,-0.0005433973,0.0004223009,0,-15.86185,38.01299,-988.8696,0
2143,0.001134464,0.001064651,0.05059709,-0.0005362389,0.00043724,0,-15.79246,38.0384,-988.8716,0
2161,0.001151917,0.001064651,0.05059709,-0.0005277238,0.0004476073,0,-15.75518,37.95656,-988.8721,0
2175,0.001169371,0.001064651,0.05059709,-0.0005331616,0.0002235124,0,-16.05599,32.58345,-988.8584,0
2190,0.001169371,0.001064651,0.05059709,-0.0005331616,0.0002235124,0,-16.05599,32.58345,-988.8584,0
2205,0.001186824,0.001047197,0.05059709,-0.0005341223,0.0002525304,0,-15.82746,39.96936,-980.439,0
2221,0.001204277,0.001012291,0.05061455,-0.0005181293,0.0003991631,0,-15.81029,38.20146,-980.6157,0
2237,0.001204277,0.001012291,0.05061455,-0.0005181293,0.0003991631,0,-15.81029,38.20146,-980.6157,0
2252,0.001186824,0.0009948376,0.05064945,-0.0005109726,0.0004809482,0,-15.94873,38.07788,-981.0552,0
2268,0.001186824,0.0009948376,0.05064945,-0.0005112001,0.0004947132,0,-15.95045,37.95882,-981.0664,0
2283,0.001186824,0.0009948376,0.05064945,-0.0005112001,0.0004947132,0,-15.95045,37.95882,-981.0664,0
2299,0.001239184,0.0009075712,0.05057964,-0.000692475,0.0004263005,0,-19.32595,38.10305,-987.6157,0
2315,0.001308997,0.000715585,0.05082399,-0.0006009271,0.000613873,0,0,0,0,0
2330,0.001204277,0.0005759586,0.05057964,-8.914054E-05,0.0007195201,0,-13.09297,33.12485,-987.6693,0
2346,0.001169371,0.0004886922,0.05113815,-0.0003446576,0.0003100046,0,-16.02316,34.82899,-981.3295,0
2361,0.001169371,0.0004886922,0.05113815,-0.0003446576,0.0003100046,0,-16.02316,34.82899,-981.3295,0
2377,0.001151917,0.0005235987,0.05106834,0.0003513037,0.0003971173,0,-5.870608,39.45794,-985.1293,0
2393,0.0009773844,8.726646E-05,0.05078908,0.0004363368,0.0008804923,0,-14.22495,50.43051,-981.8627,0
2408,0.001064651,0.0001745329,0.05050983,0.0005389393,0.0006464898,0,-10.76354,30.21726,-997.4848,0
2424,0.0008726646,0.0005759586,0.05084144,0.0001869623,0.0003459564,0,-23.23693,36.58026,-977.8893,0
2440,0.0008726646,0.0005759586,0.05084144,0.0001869623,0.0003459564,0,-23.23693,36.58026,-977.8893,0
2455,0.0009773844,0.0002617994,0.05064945,0.0004135694,0.0008716304,0,-6.845446,50.82448,-985.2006,0
2471,0.0008726646,0.0004014257,0.05073672,0.0004985704,0.0006229312,0,-3.905915,39.19886,-984.6602,0
2487,0.0008028515,0.000418879,0.0508589,0.0005040235,0.0005212885,0,-16.04325,33.71663,-992.2715,0
2502,0.0008726646,0.0004014257,0.050632,0.0002479351,0.0004325311,0,-13.40138,38.8058,-980.5932,0
2517,0.0008726646,0.0003839724,0.05082399,5.885286E-05,5.409777E-05,0,-18.89922,29.17703,-987.9463,0
2533,0.0008726646,0.0003839724,0.05082399,5.885286E-05,5.409777E-05,0,0,0,0,0
2549,0.0007853982,0.0003490658,0.05075417,6.143083E-05,0.0004820591,0,-7.992162,47.47829,-982.6528,0
2564,0.0008203047,0.0004537856,0.05068436,0.0002530543,0.0004107095,0,-14.65729,36.39768,-990.4009,0
2582,0.0007330383,0.0004363323,0.05064945,0.0001836634,0.0005859176,0,-20.15114,37.78498,-989.188,0
2596,0.0006806784,0.0004363323,0.050632,0.0001582575,0.0008217325,0,-11.98041,41.40402,-988.7632,0
2612,0.0006457719,0.0003141593,0.05087635,-0.0001806756,0.0004669467,0,-23.08579,35.89208,-990.6821,0
2627,0.0006108652,0.0002617994,0.05073672,-0.0004477816,0.0006614573,0,-15.83819,40.36488,-989.4365,0
2642,0.0006108652,0.0002617994,0.05073672,-0.0004477816,0.0006614573,0,-15.83819,40.36488,-989.4365,0
2658,0.0006108652,0.0002268928,0.05091126,-0.000535368,0.0003248699,0,-20.42011,38.74366,-986.6616,0
2673,0.0006632251,0.0002443461,0.05077163,-0.0003395023,0.000309221,0,-14.79512,37.74901,-984.7192,0
2689,0.0006457719,0.0002268928,0.05082399,-0.0002521772,0.0002916382,0,-12.5838,37.44317,-986.6626,0
2705,0.0006632251,0.0002094395,0.05082399,-6.463415E-05,0.0001649278,0,-10.11369,34.50352,-983.4951,0
2720,0.0006283185,0.0003316125,0.05091126,0.0003140503,3.016055E-05,0,0,0,0,0
2736,0.0006632251,0.000296706,0.05071926,0.0006369827,0.0001061159,0,-8.185406,42.58979,-982.2612,0
2752,0.0006457719,0.0003141593,0.05078908,0.000638999,0.0007537327,0,-9.034348,47.85257,-988.9531,0
2767,0.0005759586,0.000418879,0.05113815,0.0003625932,0.0008321444,0,-22.15531,39.59486,-985.5894,0
2783,0.0005759586,0.0001919862,0.05082399,0.0003394168,0.0009088045,0,-5.884498,44.6112,-983.541,0
2798,0.0006806784,0.0001745329,0.05087635,4.030938E-05,0.0008796066,0,-16.25836,36.77394,-980.0166,0
2814,0.000593412,0.000296706,0.05105088,-0.0002859346,0.0005838826,0,-18.54683,41.67352,-987.9218,0
2829,0.000593412,0.000296706,0.05105088,-0.0002859346,0.0005838826,0,-18.54683,41.67352,-987.9218,0
2868,0.000418879,0.0002268928,0.05094616,0.0004652263,0.0007981679,0,-13.76725,43.16709,-994.0786,0
2876,0.0006981317,0.0003665191,0.05091126,0.0005829979,7.387893E-05,0,-5.717608,25.8293,-990.7578,0
2892,0.0005061455,0.0002443461,0.05119051,-0.0001779271,0.000963583,0,-33.25798,58.07659,-981.8408,0
2907,0.0003839724,0.0001570796,0.05119051,-0.0003739085,0.001047631,0,-23.26372,45.16911,-987.106,0
2923,0.0005235987,0.000296706,0.05092871,-5.705588E-05,0.000845438,0,-7.404823,38.50936,-981.475,0
2939,0.0001919862,-0.0001047198,0.05117305,-2.294527E-05,0.0009161762,0,-7.980896,44.03819,-967.5903,0
2954,5.235988E-05,-3.490658E-05,0.0511556,-0.0008603014,0.001095492,0,-21.04173,33.36279,-982.1896,0
2970,3.490658E-05,5.235988E-05,0.05099852,-6.148533E-05,0.0009135224,0,-14.13745,48.1137,-973.6942,0
2985,0.0002443461,-0.0001919862,0.05131268,-0.0005881315,0.001044746,0,-14.10574,38.41365,-983.7622,0
3001,0.0001919862,-0.0001570796,0.05138249,-0.0001091875,0.0008154956,0,0,0,0,0
3017,-8.726646E-05,-0.0002094395,0.05101598,-0.000310955,0.001113418,0,-2.790018,29.87686,-986.3955,0
3032,-8.726646E-05,-0.0002094395,0.05101598,-0.000310955,0.001113418,0,0,0,0,0
3048,-0.0003490658,-0.0003141593,0.05126032,-0.0009642197,0.0009824703,0,-15.53332,40.83257,-982.081,0
3063,0,3.490658E-05,0.05112069,-8.66408E-05,0.0005787799,0,0,0,0,0
3079,0,-0.000122173,0.05117305,-0.0003494087,0.000780063,0,-6.644418,35.75954,-987.686,0
3094,-0.0005410521,-0.0002268928,0.05124287,-0.0003991076,0.0007487764,0,-35.46703,50.63764,-982.604,0
3110,-6.981317E-05,0,0.05117305,-0.0004200499,0.0003678388,0,-37.62815,47.92202,-987.4786,0
3126,-0.0001570796,-0.0001745329,0.05117305,0.0001356749,0.0006396484,0,3.004735,44.26802,-987.855,0
3141,-0.0001570796,-0.0001745329,0.05117305,0.0001356749,0.0006396484,0,3.004735,44.26802,-987.855,0
3157,-0.0006806784,-0.0004014257,0.05120796,-0.0006632967,0.0008722114,0,-27.38485,41.91729,-990.5645,0
3172,-0.0003839724,-0.000296706,0.05127777,0.0002131357,0.0003618104,0,8.578538,32.52952,-983.9188,0
3188,-0.0002268928,-0.0001745329,0.05119051,-0.0003447134,0.0008473992,0,-16.23174,47.05674,-976.9291,0
3204,-0.0006981317,-0.0002443461,0.05134758,0.0001930194,0.0003721452,0,-2.341204,31.16197,-980.14,0
3219,-0.0006981317,-0.0002443461,0.05134758,0.0001930194,0.0003721452,0,-2.341204,31.16197,-980.14,0
3235,-0.0006108652,-0.0001047198,0.05120796,9.727776E-06,0.0002239449,0,-10.48097,40.5075,-978.3215,0
3251,-0.0006108652,-0.0001047198,0.05120796,9.727776E-06,0.0002239449,0,-10.48097,40.5075,-978.3215,0
3266,-0.000715585,0,0.05126032,1.261713E-05,0.0001348521,0,-20.88736,44.75049,-975.3857,0
3282,-0.000715585,0,0.05126032,1.261713E-05,0.0001348521,0,-20.88736,44.75049,-975.3857,0
3297,-0.0006457719,-0.0002792527,0.05122541,-0.0003157246,9.430392E-05,0,-8.507935,35.91217,-986.4741,0
3313,-0.001082104,-0.0002268928,0.05119051,-0.000236617,0.0001938183,0,-31.52337,49.01492,-985.5995,0
3328,-0.0008203047,-8.726646E-05,0.05134758,9.380181E-05,-0.0002924486,0,-9.07336,39.16098,-976.3373,0
3344,-0.00122173,-0.0001396263,0.05136504,0.0001989721,7.962935E-05,0,-16.10101,45.40447,-982.8304,0
3360,-0.00122173,-0.0001396263,0.05136504,0.0001989721,7.962935E-05,0,-16.10101,45.40447,-982.8304,0
3375,-0.0007853982,-0.0002792527,0.05119051,0.0003750764,-0.0004002781,0,0,0,0,0
3391,-0.000593412,1.745329E-05,0.05117305,4.692552E-06,-0.0001510541,0,-14.73702,38.89598,-989.9262,0
3407,-0.000593412,1.745329E-05,0.05117305,4.692552E-06,-0.0001510541,0,-14.73702,38.89598,-989.9262,0
3422,-0.00132645,-1.745329E-05,0.05124287,7.200062E-05,0.0001020976,0,0,0,0,0
3438,-0.001134464,-0.000122173,0.05120796,0.0009066952,-0.0005522794,0,2.948572,32.27655,-971.6044,0
3453,-0.0009599311,8.726646E-05,0.05117305,0.0003690895,-0.0005274964,0,-23.45654,36.36336,-986.4759,0
3469,-0.001064651,0.0002268928,0.05117305,0.0003900567,-0.0004195376,0,-25.77285,46.11276,-995.4741,0
3485,-0.001151917,0.0001396263,0.05113815,0.0001193211,-0.0003757011,0,-23.42934,33.31331,-988.0009,0
3500,-0.001151917,0.0001396263,0.05113815,0.0001193211,-0.0003757011,0,0,0,0,0
3516,-0.001117011,3.490658E-05,0.05122541,0.000527219,-0.0006046384,0,-6.845457,48.67638,-984.4252,0
3531,-0.0009250245,-0.000122173,0.05103343,0.0006314327,-0.0006432739,0,-3.706923,33.46175,-988.3547,0
3547,-0.0008901179,-1.745329E-05,0.05124287,0.000480429,-0.0006730045,0,-10.32761,29.26482,-993.7852,0
3563,-0.001082104,0.0001047198,0.05117305,6.312299E-05,-0.0005061332,0,-30.77373,32.89839,-978.8027,0
3578,-0.001082104,0.0001047198,0.05117305,6.312299E-05,-0.0005061332,0,-30.77373,32.89839,-978.8027,0
3594,-0.0009948376,8.726646E-05,0.0511556,0.0006318,-0.0003458931,0,-2.382107,57.50103,-974.4502,0
3610,-0.000715585,1.745329E-05,0.05110324,-2.835736E-06,-0.0001156449,0,-23.02842,38.36098,-987.2675,0
3625,-0.0007853982,-1.745329E-05,0.05094616,0.0002053204,-0.0004732954,0,-21.51765,36.72829,-971.5541,0
3641,-0.0005759586,-0.0001047198,0.05113815,0.0005816222,-0.000747163,0,-7.640141,29.88777,-996.0912,0
3656,-0.0005759586,-0.0001047198,0.05113815,0.0005816222,-0.000747163,0,-7.640141,29.88777,-996.0912,0
3672,-0.001029744,-0.0002617994,0.05087635,0.0009252066,-0.0002357505,0,-2.556773,47.03905,-973.0522,0
3691,-0.0008377581,-0.0004712389,0.05131268,0.0008568159,-0.0006959835,0,-6.982369,23.92181,-1000.485,0
3703,-0.00122173,-3.490658E-05,0.05103343,0.0004726333,-0.0005060039,0,-25.00187,42.30487,-995.7922,0
3719,-0.001064651,-0.0002094395,0.05078908,0.0002056983,-0.0008728679,0,-21.41132,45.26126,-986.6306,0
3734,-0.001029744,-0.0004537856,0.05096361,-0.0001904248,-0.0005433031,0,-32.85406,44.72123,-976.3099,0
3750,-0.001082104,-0.0005759586,0.05131268,0.0001272724,-0.000123904,0,-14.76458,47.41467,-977.3022,0
3765,-0.001047197,-0.0002268928,0.05139995,0.0004328123,9.649173E-05,0,-2.952313,45.12499,-996.552,0
3781,-0.001029744,-0.0004886922,0.05119051,3.895763E-05,0.0002955796,0,-21.57539,45.32844,-981.7171,0
3797,-0.0008552113,-0.0004014257,0.05152212,-0.0001577121,0.0002584102,0,-19.99591,36.58717,-984.7367,0
3812,-0.0006457719,-0.0002268928,0.05136504,-0.0002201471,-0.0001460254,0,-16.18049,37.59147,-979.5058,0
3828,-0.001117011,-0.0001396263,0.05139995,-7.892231E-05,-0.0002503763,0,-10.46878,40.64785,-979.6992,0
3844,-0.0009773844,-0.0002268928,0.05162684,0.0008834149,-0.000776986,0,-2.720832,33.30887,-990.9329,0
3859,-0.001047197,-0.0002268928,0.05113815,0.0008871955,-0.0004150609,0,-15.36034,51.20486,-985.682,0
3875,-0.001169371,-0.0005235987,0.05166174,0.0005418005,-2.800286E-05,0,-21.37358,51.40556,-975.1854,0
3894,-0.001239184,-0.0002443461,0.05204572,0.0007275804,0.0003218263,0,-11.47972,41.28451,-985.1543,0
3906,-0.0009773844,-0.0004363323,0.05133013,0.0002579462,8.73577E-05,0,-24.50758,39.07509,-986.6467,0
3921,-0.001186824,-0.0005585054,0.05157448,-3.535825E-05,-0.0001313719,0,-16.48671,41.09904,-985.4951,0
3939,-0.001151917,-0.0003839724,0.05220279,0.0001944906,-0.0001784541,0,-9.207718,41.17667,-983.1806,0
3953,-0.001308997,-0.000715585,0.05153957,0.0003411711,-0.0001906269,0,-15.0497,41.83206,-986.7593,0
3971,-0.00127409,-0.0007853982,0.05129522,3.625856E-05,-0.0003164787,0,-21.54517,39.94801,-984.3978,0
3984,-0.00127409,-0.0007853982,0.05129522,3.625856E-05,-0.0003164787,0,-21.54517,39.94801,-984.3978,0
3999,-0.001082104,-0.0005235987,0.05139995,9.179697E-05,-0.0005824153,0,0,0,0,0
4015,-0.00153589,-0.001064651,0.05119051,0.0002278382,0.0002697148,0,-10.08083,42.55295,-992.0511,0
4030,-0.00153589,-0.001064651,0.05119051,0.0002278382,0.0002697148,0,-10.08083,42.55295,-992.0511,0
4047,-0.00137881,-0.000715585,0.0516792,0.0008517375,-6.967478E-05,0,-9.772158,40.34271,-978.6442,0
4062,-0.001047197,-0.0008028515,0.05145231,6.501829E-05,-0.0003669478,0,-25.29479,40.01499,-977.0781,0
4077,-0.001047197,-0.0008028515,0.05145231,6.501829E-05,-0.0003669478,0,-25.29479,40.01499,-977.0781,0
4093,-0.0009948376,-0.001117011,0.05108579,-0.0003140511,-9.461615E-05,0,-18.77951,45.76313,-979.2752,0
4109,-0.001256637,-0.0007853982,0.05150466,-0.0003962516,-0.0001823516,0,-25.82931,36.55761,-988.498,0
4124,-0.001448623,-0.001343903,0.05126032,-0.000926939,-0.0007370662,0,-27.71885,34.82181,-979.8536,0
4140,-0.001448623,-0.001343903,0.05126032,-0.000926939,-0.0007370662,0,-27.71885,34.82181,-979.8536,0
4156,-0.001361357,-0.0008028515,0.05169665,0.0006046455,-0.0003053616,0,-12.00488,42.52276,-984.9193,0
4171,-0.001361357,-0.0008028515,0.05169665,0.0006046455,-0.0003053616,0,-12.00488,42.52276,-984.9193,0
4186,-0.001762783,-0.00148353,0.0516792,-5.594148E-05,-9.084465E-05,0,-25.96133,45.53848,-980.0145,0
4202,-0.001640609,-0.0008726646,0.05105088,0.0006862346,-0.0004401632,0,-9.382065,39.7855,-984.029,0
4218,-0.001640609,-0.0008726646,0.05105088,0.0006862346,-0.0004401632,0,-9.382065,39.7855,-984.029,0
4233,-0.001623156,-0.001308997,0.0516792,4.987306E-05,-0.0005456565,0,-20.71453,32.21187,-980.1777,0
4249,-0.001256637,-0.001553343,0.05126032,0.000502552,-0.0009654167,0,-7.778505,35.20243,-985.1302,0
4264,-0.001256637,-0.001553343,0.05126032,0.000502552,-0.0009654167,0,-7.778505,35.20243,-985.1302,0
4280,-0.0009424778,-0.0009948376,0.05105088,0.001418107,-0.0004125677,0,1.230979,52.55698,-978.7819,0
4296,-0.001605703,-0.0008901179,0.0511556,0.00147797,-0.0001426448,0,0,0,0,0
4311,-0.001518436,-0.001134464,0.05110324,0.001179601,-0.0004179315,0,-22.94498,32.01432,-994.752,0
4327,-0.001727876,-0.003298672,0.05094616,0.0007464954,-0.002006296,0,-15.51672,40.11913,-998.9712,0
4343,-0.00270526,-0.003385939,0.05152212,0.0007199435,-0.002334007,0,-24.7876,30.02685,-1002.79,0
4358,-0.003508112,-0.004276057,0.05190609,-0.0005092694,-0.003572172,0,-41.66202,8.649914,-997.2388,0
4374,-0.003508112,-0.004276057,0.05190609,-0.0005092694,-0.003572172,0,-41.66202,8.649914,-997.2388,0
4389,-0.003630285,-0.006213372,0.0529882,-0.001877797,-0.005151148,0,-34.18846,13.28766,-997.0272,0
4406,-0.003176499,-0.007539823,0.05384341,-0.0007729355,-0.005631054,0,-14.60743,11.52814,-1029.803,0
4421,-0.003054326,-0.009669124,0.05441936,4.621977E-05,-0.005681523,0,-27.02011,12.99583,-1013.519,0
4436,-0.003700098,-0.01202532,0.05469862,0.001058939,-0.006208293,0,-17.74645,9.673307,-1022.207,0
4453,-0.00434587,-0.01473058,0.05506514,0.001898051,-0.006009215,0,-22.26275,26.15576,-1023.518,0
4467,-0.00434587,-0.01473058,0.05506514,0.001898051,-0.006009215,0,-22.26275,26.15576,-1023.518,0
4483,-0.004974188,-0.01726131,0.05611233,0.00302692,-0.006361983,0,-33.60986,22.63517,-1022.463,0
4499,-0.005550147,-0.01973967,0.05756096,0.003703641,-0.006764829,0,-37.09561,15.76368,-1033.444,0
4514,-0.005375614,-0.02501057,0.06037094,0.005712915,-0.005503813,0,-35.64088,36.13594,-1066.539,0
4537,-0.005602507,-0.02673844,0.06112143,0.006286839,-0.004384846,0,-45.28021,44.90226,-1079.775,0
4545,-0.005602507,-0.02673844,0.06112143,0.006286839,-0.004384846,0,-45.28021,44.90226,-1079.775,0
4561,-0.003333579,-0.03007202,0.06305874,0.008713801,-0.003505126,0,-18.28891,28.79699,-1118.221,0
4577,-0.003333579,-0.03007202,0.06305874,0.008713801,-0.003505126,0,-18.28891,28.79699,-1118.221,0
4592,-0.0004886922,-0.03141592,0.06504842,0.008858565,-0.001829449,0,-54.63441,49.24578,-1101.975,0
4608,0.001605703,-0.03193953,0.06649704,0.008259812,-0.001008847,0,-60.32327,35.86438,-1083.989,0
4624,0.00418879,-0.03300418,0.06775368,0.007558045,-0.0005952654,0,-65.27247,36.78988,-1077.722,0
4639,0.007365289,-0.0347146,0.0681202,0.007938267,-0.0001035107,0,-49.72034,27.36982,-1072.895,0
4655,0.009686577,-0.03701843,0.06825983,0.008690361,0.0007635735,0,-50.08395,32.63379,-1070.142,0
4671,0.01108284,-0.03991568,0.06839945,0.01008069,0.002133731,0,-37.97445,37.72512,-1076.17,0
4686,0.01108284,-0.03991568,0.06839945,0.01008069,0.002133731,0,-37.97445,37.72512,-1076.17,0
4701,0.01265364,-0.04237659,0.06934194,0.01164336,0.003429767,0,-45.08449,44.96636,-1067.535,0
4719,0.0156556,-0.04864233,0.07194248,0.01737801,0.005460508,0,-12.81573,37.92278,-1078.918,0
4733,0.0156556,-0.04864233,0.07194248,0.01737801,0.005460508,0,-12.81573,37.92278,-1078.918,0
4748,0.01607448,-0.04991641,0.07229154,0.02128211,0.005523616,0,15.8745,22.94665,-1076.007,0
4764,0.01610939,-0.05091126,0.07187266,0.02397164,0.004563259,0,4.882381,10.04433,-1058.786,0
4779,0.01497492,-0.05134758,0.07197738,0.02523359,0.003946259,0,-8.787331,13.29421,-1035.913,0
4795,0.01242674,-0.05173156,0.07257079,0.02584624,0.003211548,0,-10.31868,18.62106,-1034.554,0
4811,0.0055676,-0.05098107,0.07456046,0.02725704,0.002273188,0,5.260927,24.96722,-1024.343,0
4826,0.0006283185,-0.04684464,0.07571238,0.02835785,0.0009661601,0,10.19366,21.37979,-1026.541,0
4842,-0.002164208,-0.04283038,0.07646287,0.02725503,-0.0007046759,0,-14.38976,16.75313,-1029.662,0
4858,-0.00434587,-0.03918264,0.07682939,0.02446393,-0.001881205,0,-32.39882,21.54565,-1022.987,0
4873,-0.00434587,-0.03918264,0.07682939,0.02446393,-0.001881205,0,-32.39882,21.54565,-1022.987,0
4888,-0.006736971,-0.03516839,0.07705629,0.02224805,-0.002488815,0,-19.54309,34.27898,-1025.245,0
4904,-0.0084823,-0.03211406,0.07754497,0.02090843,-0.002752717,0,0,0,0,0
4920,-0.01295034,-0.01898918,0.07894124,0.01536183,-0.005951179,0,-29.73638,20.61396,-1020.232,0
4941,-0.01438151,-0.01263618,0.07871436,0.01221301,-0.006708002,0,-36.32995,30.80145,-1020.891,0
4951,-0.01570796,-0.006178466,0.07920304,0.008843062,-0.006955497,0,-37.27254,34.50472,-1022.376,0
4967,-0.01706932,0.00280998,0.07956956,0.00438143,-0.007670227,0,-38.86713,28.0715,-1003.609,0
4983,-0.01783726,0.009232791,0.07946484,0.001050566,-0.008196022,0,-39.23707,30.49221,-1011.384,0
4999,-0.01780236,0.01321214,0.07939503,-0.00131678,-0.00813607,0,-42.36908,37.9415,-1008.253,0
5014,-0.01720895,0.01970477,0.07995353,-0.006094115,-0.007361783,0,-48.89294,45.01917,-993.7267,0
5029,-0.01776745,0.02328269,0.07998844,-0.009192311,-0.00685223,0,-45.77038,46.6488,-984.9424,0
5046,-0.0185703,0.02614503,0.07986627,-0.01175624,-0.006724689,0,-47.58099,39.76477,-975.7899,0
5060,-0.01869248,0.02858849,0.07998844,-0.01388119,-0.006651706,0,-48.40796,50.0904,-977.8267,0
5076,-0.01869248,0.02858849,0.07998844,-0.01388119,-0.006651706,0,-48.40796,50.0904,-977.8267,0
5091,-0.01860521,0.03162537,0.0800408,-0.01528837,-0.006184237,0,-32.35854,51.28868,-970.4116,0
5107,-0.01872738,0.03307399,0.07986627,-0.01542296,-0.005935602,0,-21.98581,54.82849,-974.5258,0
5123,-0.01998402,0.03712315,0.07976155,-0.01647622,-0.005575507,0,-25.80252,53.63174,-976.5901,0.24
5138,-0.02003638,0.03876376,0.07991862,-0.01640501,-0.02051376,0,-26.26232,45.81936,-983.5879,0.24
5154,-0.02054253,0.04040437,0.07972664,-0.01513518,-0.05651397,0,-28.221,41.0621,-973.7461,0.24
5169,-0.02028072,0.04230678,0.07937757,-0.01600822,-0.08297373,0,-22.36773,45.93981,-1005.829,0.243
5185,-0.02028072,0.04230678,0.07937757,-0.01600822,-0.08297373,0,-22.36773,45.93981,-1005.829,0.243
5201,-0.02127556,0.04569272,0.0792554,-0.02430841,-0.1189003,0,-11.6516,38.86627,-1198.43,0.249
5216,-0.02185152,0.04668755,0.07874925,-0.0269188,-0.1273483,0,-10.40053,35.71693,-1234.235,0.248
5233,-0.0217468,0.04738569,0.07881907,-0.03378116,-0.1387859,0,-2.584286,27.42117,-1268.353,0.253
5247,-0.0217468,0.04738569,0.07881907,-0.03378116,-0.1387859,0,0,0,0,0.253
5263,-0.02052507,0.04995132,0.07984881,-0.04198397,-0.1523539,0,-21.18217,52.79749,-1319.981,0.258
5278,-0.01998402,0.05054473,0.07930776,-0.04801937,-0.1553808,0,-22.03313,39.9334,-1320.05,0.262
5294,-0.01621411,0.05106834,0.07969173,-0.05608286,-0.1610126,0,8.328969,41.16005,-1311.928,0.269
5310,-0.01621411,0.05106834,0.07969173,-0.05608286,-0.1610126,0,8.328969,41.16005,-1311.928,0.269
5325,-0.01490511,0.05169665,0.08045968,-0.06120537,-0.1618259,0,2.383148,46.74977,-1292.352,0.278
5341,-0.01357866,0.05122541,0.08049458,-0.0631711,-0.1638974,0,-8.258232,37.40725,-1267.157,0.283
5357,-0.01254892,0.0498117,0.08028515,-0.06832404,-0.1769318,0,-14.79751,43.97341,-1240.491,0.301
5372,-0.01225221,0.04857251,0.08073893,-0.06708854,-0.1866831,0,9.946184,43.96659,-1215.675,0.306
5388,-0.01225221,0.04857251,0.08073893,-0.06708854,-0.1866831,0,9.946184,43.96659,-1215.675,0.306
5403,-0.01286308,0.04419174,0.08237953,-0.0655558,-0.2260598,0,-17.96326,47.10291,-1137.425,0.331
5419,-0.01371829,0.04143412,0.08288569,-0.06367459,-0.2451304,0,-13.64318,49.04421,-1107.613,0.345
5435,-0.01504474,0.03811799,0.08381071,-0.0601957,-0.263568,0,4.868911,47.60394,-1083.519,0.36
5451,-0.01680752,0.03536037,0.08468338,-0.05334938,-0.2832201,0,8.754541,37.38581,-1055.604,0.37
5466,-0.01680752,0.03536037,0.08468338,-0.05334938,-0.2832201,0,0,0,0,0.37
5481,-0.01881465,0.0325853,0.08529424,-0.04566605,-0.3130214,0,0.2914449,42.2512,-1032.284,0.386
5497,-0.02069961,0.02988004,0.08574802,-0.04393613,-0.3248977,0,-2.836501,49.98264,-1006.219,0.402
5513,-0.02422517,0.02474877,0.08724901,-0.03109719,-0.3505943,0,-3.267369,43.78555,-968.2839,0.43
5528,-0.02666863,0.0220086,0.08752826,-0.02506981,-0.3661118,0,-0.959349,46.31359,-949.5376,0.448
5544,-0.02837905,0.01958259,0.0877028,-0.02082254,-0.378054,0,-3.9193,45.71088,-937.2899,0.466
5559,-0.02935644,0.01799434,0.08822639,-0.01692461,-0.4001222,0,-9.693557,51.76164,-926.3948,0.478
5575,-0.03129375,0.01569051,0.08911651,-0.01384587,-0.392857,0,0,0,0,0.489
5590,-0.03323107,0.01284562,0.09005898,-0.004958518,-0.3976119,0,-0.4468397,45.02787,-896.6769,0.514
5606,-0.03478441,0.01101303,0.09023352,0.003260395,-0.3944624,0,-3.275085,49.92839,-888.524,0.524
5622,-0.03598869,0.009075711,0.09061749,0.011272,-0.4260736,0,-7.610453,51.08372,-888.6095,0.542
5637,-0.03689626,0.007661995,0.09122837,0.009860448,-0.4491689,0,-7.268505,50.97738,-877.2793,0.56
5653,-0.03757694,0.006894051,0.09145525,0.0119086,-0.4666659,0,0,0,0,0.563
5668,-0.03827507,0.006370452,0.09175196,0.01493568,-0.4895778,0,-12.14563,57.67989,-876.0881,0.575
5684,-0.03848451,0.005864306,0.09232792,0.01943437,-0.5108635,0,-17.53979,53.07718,-861.704,0.587
5700,-0.03747222,0.003420845,0.09328784,0.02897053,-0.5685164,0,-18.75955,55.02775,-689.2166,0.617
5715,-0.03647738,0.002146755,0.09321804,0.06402878,-0.561841,0,-9.238677,55.45671,-608.3648,0.632
5731,-0.0352731,0.001134464,0.09342748,0.04773305,-0.5523301,0,-15.19861,56.45866,-563.9935,0.634
5747,-0.03398156,6.981317E-05,0.09349728,0.04452042,-0.535683,0,-23.01112,63.56176,-544.4112,0.646
5762,-0.03326597,-0.0008028515,0.09374163,0.03126226,-0.5217766,0,-11.73506,51.64102,-549.6914,0.658
5778,-0.03225369,-0.00143117,0.0938289,0.01395455,-0.5117509,0,-18.25778,59.62244,-553.0494,0.661
5793,-0.0307527,-0.002129302,0.09365437,-0.0088742,-0.4884245,0,-12.29602,53.81535,-584.9498,0.673
5809,-0.0294088,-0.002600541,0.09375909,-0.02203639,-0.4681039,0,-12.75131,57.6315,-601.5878,0.672
5825,-0.0280998,-0.00286234,0.093794,-0.0354418,-0.4439823,0,-19.37204,58.09708,-622.1743,0.678
5840,-0.0280998,-0.00286234,0.093794,-0.0354418,-0.4439823,0,-19.37204,58.09708,-622.1743,0.678
5856,-0.02631957,-0.003001966,0.09384635,-0.05054022,-0.426591,0,-17.28586,52.33998,-651.7294,0.685
5871,-0.02431244,-0.002879793,0.09393362,-0.06445926,-0.4050412,0,-12.79335,54.8693,-679.6517,0.681
5887,-0.02158972,-0.002949606,0.09405579,-0.07491159,-0.3854877,0,-11.27358,57.02552,-712.5574,0.686
5903,-0.01698205,-0.002251475,0.09395107,-0.09032686,-0.3453904,0,-11.12954,60.40747,-769.8225,0.69
5919,-0.01480039,-0.001850049,0.09443976,-0.09711993,-0.329172,0,-13.29204,48.21746,-796.9216,0.694
5934,-0.01281072,-0.001151917,0.09475392,-0.1013707,-0.3120425,0,-5.150513,53.96124,-798.696,0.687
5949,-0.01069887,-0.0001570796,0.09449212,-0.1124649,-0.2993744,0,-11.94551,49.2223,-832.414,0.69
5972,-0.009634217,0.000296706,0.09430014,-0.1270602,-0.2903688,0,-10.95059,58.65708,-855.8234,0.681
5981,-0.009023353,0.001134464,0.09477138,-0.1369199,-0.2843463,0,-15.76149,48.88935,-879.0141,0.682
5996,-0.00837758,0.001396263,0.09491101,-0.1442993,-0.2791896,0,-5.360183,46.65594,-909.4785,0.682
6012,-0.00837758,0.001396263,0.09491101,-0.1442993,-0.2791896,0,-5.360183,46.65594,-909.4785,0.682
6027,-0.008552114,0.001762783,0.09499827,-0.1467235,-0.2714088,0,0,0,0,0.676
6043,-0.008779006,0.00270526,0.09485865,-0.1510907,-0.2613305,0,-5.689116,48.41332,-971.4486,0.676
6059,-0.009145525,0.003281219,0.09515535,-0.1437001,-0.2570831,0,-8.276531,52.0494,-983.5651,0.669
6074,-0.009913471,0.003769911,0.09571386,-0.1466126,-0.2541951,0,-6.619279,46.10767,-997.0886,0.669
6090,-0.009913471,0.003769911,0.09571386,-0.1466126,-0.2541951,0,-6.619279,46.10767,-997.0886,0.669
6106,-0.01155408,0.004817109,0.09573131,-0.1440278,-0.2461971,0,-6.22747,43.74764,-1029.802,0.662
6121,-0.01233948,0.005096362,0.09592329,-0.1395782,-0.2480334,0,-9.571266,52.77628,-1031.975,0.662
6137,-0.01329941,0.004956735,0.09660397,-0.1389635,-0.2471066,0,-3.995945,48.48734,-1039.507,0.655
6152,-0.01396263,0.005393067,0.09669124,-0.1320381,-0.2521272,0,-3.32259,53.92387,-1046.018,0.655
6168,-0.01478294,0.005916666,0.09662142,-0.1281593,-0.2491784,0,-7.136686,48.87482,-1052.769,0.655
6183,-0.01478294,0.005916666,0.09662142,-0.1281593,-0.2491784,0,-7.136686,48.87482,-1052.769,0.655
6199,-0.01542871,0.006248279,0.09676106,-0.1279017,-0.2497112,0,-7.258195,53.92127,-1054.627,0.655
6214,-0.01633628,0.006161012,0.09731957,-0.1257091,-0.2552173,0,0,0,0,0.656
6230,-0.01710423,0.006091199,0.09756391,-0.1215475,-0.2600528,0,-1.336781,44.67752,-1020.983,0.657
6246,-0.01710423,0.006091199,0.09756391,-0.1215475,-0.2600528,0,-1.336781,44.67752,-1020.983,0.657
6261,-0.01762783,0.005654867,0.09819222,-0.1252008,-0.261701,0,-7.623289,52.9512,-1004.072,0.644
6277,-0.01762783,0.005654867,0.09819222,-0.1252008,-0.261701,0,-7.623289,52.9512,-1004.072,0.644
6292,-0.0185703,0.005637414,0.09817477,-0.1225155,-0.2594559,0,0.6133822,55.54955,-1028.039,0.644
6308,-0.01930334,0.005637414,0.0983493,-0.1223171,-0.2632,0,3.937842,51.62859,-1051.303,0.648
6324,-0.02237512,0.00731293,0.1100256,-0.1197588,-0.2720841,0,-1.457389,69.36906,-1081.319,0.65
6339,-0.02501057,0.008726646,0.1185777,-0.1192393,-0.2814285,0,-2.220788,61.84293,-1053.425,0.647
6355,-0.02501057,0.008726646,0.1185777,-0.1192393,-0.2814285,0,-2.220788,61.84293,-1053.425,0.647
6371,-0.02722714,0.01076868,0.1267807,-0.1170505,-0.2981401,0,-1.261732,40.90485,-1028.532,0.648
6386,-0.02844887,0.01268854,0.1353328,-0.1137129,-0.3003336,0,-14.79874,54.47445,-1014.152,0.65
6402,-0.02844887,0.01268854,0.1353328,-0.1137129,-0.3003336,0,-14.79874,54.47445,-1014.152,0.65
6418,-0.02855359,0.01291544,0.144426,-0.1144408,-0.2959178,0,-8.062906,64.22972,-972.8936,0.652
6433,-0.02816961,0.01345649,0.1520531,-0.112528,-0.3072444,0,-1.807407,54.03777,-981.08,0.654
6450,-0.02797763,0.01350885,0.1568877,-0.1168284,-0.3036262,0,-8.008567,57.72971,-971.8002,0.66
6464,-0.02745403,0.01385792,0.1614779,-0.1181197,-0.302159,0,-15.37809,57.36696,-970.3408,0.661
6480,-0.02707006,0.01340413,0.1662252,-0.1261976,-0.3001028,0,-15.0291,59.26836,-949.4982,0.663
6495,-0.02707006,0.01340413,0.1662252,-0.1261976,-0.3001028,0,-15.0291,59.26836,-949.4982,0.663
6511,-0.02687807,0.01228712,0.1728574,-0.1336429,-0.3052492,0,-3.404317,53.22734,-934.2739,0.674
6526,-0.02586578,0.01026254,0.1819506,-0.1405235,-0.3105282,0,-3.244833,49.26615,-905.9347,0.674
6542,-0.02474877,0.009477138,0.1861219,-0.1371595,-0.3101362,0,6.494831,59.48272,-895.2881,0.675
6558,-0.02474877,0.009477138,0.1861219,-0.1371595,-0.3101362,0,6.494831,59.48272,-895.2881,0.675
6573,-0.02370157,0.009023353,0.1902583,-0.1506563,-0.3107945,0,6.338573,52.23773,-910.186,0.676
6589,-0.02153736,0.008255407,0.1981472,-0.1688205,-0.3185447,0,-1.192891,55.56698,-932.6183,0.677
6614,-0.02045526,0.007679448,0.2020393,-0.1757952,-0.3218579,0,1.847463,58.06258,-936.555,0.678
6620,-0.01966986,0.007173304,0.2070833,-0.1731348,-0.314758,0,-1.236938,59.10781,-942.8298,0.679
6636,-0.01914626,0.006894051,0.2091777,-0.1764273,-0.3227968,0,-5.796291,58.77723,-942.6315,0.679
6651,-0.01914626,0.006894051,0.2091777,-0.1764273,-0.3227968,0,-5.796291,58.77723,-942.6315,0.679
6667,-0.01811652,0.006632251,0.2137505,-0.1831836,-0.324819,0,-2.496548,49.16972,-947.9347,0.674
6683,-0.01651081,0.006091199,0.2195275,-0.1917252,-0.3143512,0,-0.1414427,51.27686,-964.0073,0.675
6699,-0.01593486,0.005585053,0.2224597,-0.1953482,-0.3133505,0,5.656802,61.22982,-978.7751,0.67
6714,-0.01551598,0.005183628,0.225706,-0.1947477,-0.3093453,0,-1.058304,49.45661,-992.5789,0.67
6730,-0.01516691,0.004834562,0.2282716,-0.1940929,-0.3068994,0,-5.211361,59.36971,-1004.393,0.681
6745,-0.01516691,0.004834562,0.2282716,-0.1940929,-0.3068994,0,2.54775,60.41139,-1008.795,0.681
6760,-0.01532399,0.004660029,0.23075,-0.1956505,-0.3077847,0,1.845906,60.20048,-1009.597,0.682
6776,-0.01548107,0.004206243,0.2341883,-0.200342,-0.305962,0,-1.140829,59.82735,-970.2799,0.683
6792,-0.01541126,0.003193952,0.2394766,-0.2000623,-0.3036714,0,-2.986039,49.86101,-938.1739,0.685
6809,-0.01583014,0.003630285,0.2461961,-0.1986743,-0.2978303,0,1.081036,58.58507,-978.1433,0.677
6823,-0.01769764,0.00439823,0.2557606,-0.1994488,-0.2934438,0,-3.481452,58.87642,-980.5722,0.677
6838,-0.01848304,0.005305801,0.2642079,-0.199305,-0.285493,0,-1.233083,49.1667,-991.1207,0.677
6886,-0.01946042,0.006387905,0.272795,-0.1973686,-0.2852191,0,-7.02444,38.39737,-994.747,0.669
6901,-0.01946042,0.006387905,0.272795,-0.1973686,-0.2852191,0,-7.02444,38.39737,-994.747,0.669
6916,-0.02158972,0.007784169,0.2976485,-0.2013619,-0.299986,0,7.442482,56.97454,-1029.026,0.667
6932,-0.02220059,0.00816814,0.3058864,-0.202701,-0.2983582,0,4.160714,52.12462,-1018.674,0.667
6948,-0.02256711,0.008464847,0.3140894,-0.2044675,-0.2967704,0,-5.648123,46.31614,-1008.572,0.664
6963,-0.02246239,0.008621926,0.3226416,-0.1916081,-0.2776006,0,-3.599962,55.85624,-1009.824,0.664
6979,-0.02199115,0.008674286,0.3403566,-0.2036145,-0.2770288,0,3.902097,52.97604,-1018.006,0.668
6994,-0.02199115,0.008674286,0.3403566,-0.2036145,-0.2770288,0,3.902097,52.97604,-1018.006,0.668
7010,-0.02129302,0.009005899,0.358351,-0.2124561,-0.2913521,0,0.8850748,50.94602,-999.3985,0.673
7026,-0.02129302,0.009005899,0.358351,-0.2124561,-0.2913521,0,0.8850748,50.94602,-999.3985,0.673
7041,-0.02061234,0.00884882,0.3702367,-0.2131994,-0.2965175,0,4.757996,51.90837,-981.6951,0.675
7057,-0.02031563,0.008517207,0.382262,-0.2175123,-0.302744,0,3.549622,53.95876,-969.6513,0.676
7072,-0.02007129,0.008290314,0.3882485,-0.2184017,-0.3056036,0,0,0,0,0.677
7088,-0.01975713,0.008028515,0.3974987,-0.2143144,-0.3045496,0,2.924756,46.45235,-955.5063,0.678
7104,-0.01949533,0.007731808,0.4066617,-0.2165396,-0.306693,0,2.931944,52.11262,-955.8061,0.679
7119,-0.01937315,0.007627089,0.4128402,-0.2186677,-0.3070133,0,2.12584,47.23479,-954.4551,0.679
7135,-0.01982694,0.007522369,0.4250749,-0.2227801,-0.3064586,0,5.102489,44.0751,-959.75,0.68
7150,-0.01942552,0.007190756,0.4341157,-0.227309,-0.3102887,0,3.842309,48.21719,-959.3723,0.682
7166,-0.01877974,0.006667158,0.4517959,-0.2262883,-0.3027295,0,7.99968,52.22657,-952.6472,0.684
7182,-0.01877974,0.006667158,0.4517959,-0.2262883,-0.3027295,0,7.99968,52.22657,-952.6472,0.684
7197,-0.01811652,0.006422812,0.4642576,-0.2252996,-0.3003451,0,-3.048263,46.134,-951.815,0.68
7213,-0.01788962,0.006335545,0.4737347,-0.2280546,-0.292001,0,-1.783363,54.18515,-960.3446,0.68
7228,-0.01750565,0.006213372,0.4832119,-0.2336193,-0.2866188,0,-3.868129,52.70964,-971.228,0.679
7244,-0.01741839,0.006021386,0.492305,-0.2406944,-0.2837688,0,4.044109,52.31351,-987.8757,0.68
7260,-0.0174882,0.005654867,0.5011713,-0.2443053,-0.2800676,0,5.505202,49.88377,-982.9204,0.68
7275,-0.01781981,0.005427974,0.5099852,-0.2458355,-0.2760681,0,7.78247,51.20387,-985.3939,0.677
7291,-0.0183085,0.004991642,0.519026,-0.2474553,-0.2736813,0,4.956485,47.62732,-981.625,0.678
7306,-0.01939061,0.005235988,0.5316273,-0.2491924,-0.281246,0,9.230945,46.33813,-988.7742,0.674
7322,-0.02117085,0.006003933,0.5502325,-0.2557386,-0.2813876,0,4.401647,36.09458,-998.405,0.674
7338,-0.02117085,0.006003933,0.5502325,-0.2557386,-0.2813876,0,0,0,0,0.674
7353,-0.02190388,0.006003933,0.5653819,-0.26947,-0.2864061,0,4.528069,41.2509,-1014.432,0.67
7369,-0.02190388,0.006003933,0.5653819,-0.26947,-0.2864061,0,4.528069,41.2509,-1014.432,0.67
7384,-0.02190388,0.005393067,0.5773374,-0.2737514,-0.2973057,0,7.332105,48.48275,-1026.781,0.667
7400,-0.02172935,0.00455531,0.5866401,-0.2777709,-0.3047302,0,5.487399,48.51369,-1027.308,0.667
7416,-0.02134538,0.004607669,0.6054547,-0.2680663,-0.2945373,0,-0.3420708,42.40575,-1031.863,0.667
7431,-0.02134538,0.004607669,0.6054547,-0.2680663,-0.2945373,0,-0.3420708,42.40575,-1031.863,0.667
7447,-0.02062979,0.004991642,0.6144606,-0.2724099,-0.3006158,0,-6.757792,43.67843,-1033.232,0.668
7462,-0.01994911,0.005131268,0.6267129,-0.2844082,-0.310028,0,-2.807388,39.29134,-1030.749,0.668
7479,-0.01898918,0.005044002,0.6394013,-0.2920441,-0.3195567,0,3.217327,35.24528,-1036.248,0.669
7494,-0.01729621,0.00455531,0.6478139,-0.2943633,-0.3271088,0,-4.816967,39.79896,-1021.763,0.673
7510,-0.01623156,0.004206243,0.6547254,-0.2937492,-0.3284134,0,-2.971727,44.69336,-1006.996,0.674
7525,-0.01623156,0.004206243,0.6547254,-0.2937492,-0.3284134,0,0,0,0,0.674
7541,-0.01474803,0.004031711,0.661759,-0.2909243,-0.3296887,0,0,0,0,0.675
7556,-0.01373574,0.003874631,0.6684785,-0.290206,-0.3293172,0,5.216048,0,0,0.67
7572,-0.01174607,0.004468043,0.6806261,-0.2896266,-0.3263831,0,1.799919,46.41924,-1005.952,0.668
7587,-0.01150172,0.004485496,0.686246,-0.2906976,-0.3196401,0,-1.571029,49.28381,-1008.13,0.668
7603,-0.01122247,0.004607669,0.6899461,-0.2909191,-0.3163958,0,3.480415,42.02068,-1009.118,0.669
7618,-0.01122247,0.004607669,0.6899461,-0.2909191,-0.3163958,0,3.480415,42.02068,-1009.118,0.669
7634,-0.01127483,0.004101524,0.6950076,-0.2871283,-0.314063,0,6.631913,47.79882,-1009.571,0.668
7651,-0.0116588,0.003368485,0.7061777,-0.2826813,-0.314064,0,6.300263,40.47996,-1007.165,0.67
7666,-0.01157153,0.002897247,0.7103142,-0.2821628,-0.3209686,0,-4.406355,47.23592,-998.8989,0.671
7681,-0.01120501,0.002600541,0.7146599,-0.2823539,-0.3255236,0,-1.278332,45.65897,-998.2415,0.671
7697,-0.01043707,0.001884956,0.7189535,-0.2794064,-0.3222954,0,2.170648,43.48746,-993.7331,0.672
7712,-0.00980875,0.0004886922,0.7243814,-0.2840742,-0.3334627,0,3.726838,38.4362,-989.7247,0.673
7728,-0.009180432,-5.235988E-05,0.7268773,-0.2800854,-0.3361984,0,-1.281646,42.51153,-985.9867,0.674
7743,-0.009180432,-5.235988E-05,0.7268773,-0.2800854,-0.3361984,0,-1.281646,42.51153,-985.9867,0.674
7759,-0.00858702,-0.001291544,0.7357785,-0.2748586,-0.3427162,0,-0.780622,44.28917,-978.6644,0.676
7775,-0.008796459,-0.001623156,0.7389898,-0.2724696,-0.3421698,0,1.788893,45.15202,-983.2249,0.677
7790,-0.009128072,-0.002286381,0.7420093,-0.2658828,-0.333432,0,-6.427098,48.578,-970.1154,0.678
7806,-0.009128072,-0.002286381,0.7420093,-0.2658828,-0.333432,0,-6.427098,48.578,-970.1154,0.678
7821,-0.009529497,-0.002530727,0.7452032,-0.2594964,-0.3251671,0,-5.77275,35.87561,-960.2294,0.678
7837,-0.01038471,-0.002670354,0.7482226,-0.2520289,-0.3201587,0,-4.175235,48.09679,-961.5069,0.679
7853,-0.01295034,-0.003385939,0.7535633,-0.2528034,-0.3255894,0,-1.272968,46.54115,-955.6038,0.682
7868,-0.01410226,-0.003804818,0.7558846,-0.2537692,-0.3277848,0,-10.33183,35.68053,-953.777,0.683
7884,-0.01579523,-0.003926991,0.7593055,-0.2571617,-0.3334834,0,7.728113,34.7021,-957.584,0.683
7899,-0.01616175,-0.004153884,0.7598989,-0.2582824,-0.3319436,0,-5.471375,31.77587,-953.8218,0.684
7915,-0.01663299,-0.004590216,0.7611904,-0.259929,-0.3293255,0,-3.269165,37.34019,-955.3038,0.684
7931,-0.01816888,-0.005794493,0.7650127,-0.2645152,-0.3379314,0,0.9066843,31.27929,-957.6154,0.687
7946,-0.01902409,-0.006003933,0.7673514,-0.2377705,-0.3086153,0,6.974044,30.82395,-963.3113,0.687
7962,-0.01925098,-0.006649705,0.7689921,-0.2097973,-0.2749988,0,-7.267479,42.18538,-953.3373,0.688
7978,-0.01965241,-0.007033677,0.7701789,-0.190121,-0.2529765,0,-7.318662,37.77443,-962.2833,0.688
7993,-0.01939061,-0.007347836,0.7718893,-0.1742733,-0.2374636,0,3.654781,39.97515,-961.6032,0.689
8009,-0.01886701,-0.007417649,0.7752403,-0.1623226,-0.2278932,0,7.408935,24.78499,-991.6913,0.689
8024,-0.0193208,-0.007068583,0.7857647,-0.1501675,-0.2159382,0,-5.44481,54.75911,-990.7951,0.691
8040,-0.0193208,-0.00731293,0.7893077,-0.1474659,-0.2123342,0,-6.337795,36.03584,-1028.867,0.69
8056,-0.01870993,-0.007993608,0.7898662,-0.1470523,-0.2116243,0,-5.243624,38.35879,-1012.623,0.69
8071,-0.01841322,-0.009180432,0.7896219,-0.1453533,-0.2139957,0,-14.14519,27.99275,-994.4987,0.69
8086,-0.01841322,-0.009180432,0.7896219,-0.1453533,-0.2139957,0,0,0,0,0.69
8102,-0.01780236,-0.01045452,0.7912974,-0.1419537,-0.2139622,0,1.105874,55.4632,-948.7684,0.69
8118,-0.01837832,-0.01103048,0.7939153,-0.1335228,-0.2146467,0,13.10152,54.57084,-915.1824,0.684
8134,-0.0204378,-0.01117011,0.7961843,-0.1192149,-0.2102379,0,-3.045234,46.30208,-924.5405,0.687
8149,-0.02162463,-0.01078613,0.7975282,-0.110804,-0.2112737,0,0.25773,29.85265,-932.7496,0.686
8164,-0.02162463,-0.01078613,0.7975282,-0.110804,-0.2112737,0,0.25773,29.85265,-932.7496,0.686
8180,-0.02303835,-0.01001819,0.7981565,-0.1051752,-0.2137618,0,4.066479,32.33911,-924.0419,0.685
8196,-0.02631957,-0.007539823,0.7996401,-0.08588668,-0.2121189,0,-9.846831,36.04462,-925.1011,0.674
8211,-0.02631957,-0.007539823,0.7996401,-0.08588668,-0.2121189,0,0,0,0,0.674
8227,-0.02666863,-0.003246312,0.8006873,-0.07111037,-0.2161389,0,6.536032,37.31843,-959.8406,0.684
8242,-0.02631957,-0.002303835,0.8007745,-0.06887126,-0.2176674,0,0,0,0,0.684
8258,-0.02172935,0.003176499,0.8021533,-0.053105,-0.2257472,0,5.862468,32.82001,-946.6384,0.675
8273,-0.02172935,0.003176499,0.8021533,-0.053105,-0.2257472,0,5.862468,32.82001,-946.6384,0.675
8289,-0.01286308,0.009285152,0.8026595,-0.05110718,-0.2347902,0,-11.74902,52.48087,-956.0173,0.671
8305,-0.008307767,0.01197296,0.8032703,-0.04433119,-0.2283359,0,-5.796282,33.55081,-973.8452,0.669
8320,-0.008307767,0.01197296,0.8032703,-0.04433119,-0.2283359,0,-5.796282,33.55081,-973.8452,0.669
8336,-0.000296706,0.0153938,0.8032703,-0.04612788,-0.2322486,0,-11.35091,29.93473,-977.6566,0.658
8352,0.006126106,0.01717404,0.8026071,-0.0455278,-0.236458,0,-9.486711,39.99575,-974.3234,0.654
8367,0.009896017,0.01811652,0.8025897,-0.04254675,-0.2343422,0,-14.23068,43.616,-985.8345,0.652
8383,0.01377065,0.01815142,0.8025373,-0.03948212,-0.2309747,0,-9.454561,48.17361,-994.207,0.641
8398,0.01377065,0.01815142,0.8025373,-0.03948212,-0.2309747,0,-9.454561,48.17361,-994.207,0.641
8414,0.01846558,0.01806416,0.801874,-0.03992685,-0.2177856,0,-5.194514,45.31058,-1019.01,0.637
8430,0.02244493,0.01769764,0.8015599,-0.05280263,-0.2206066,0,0,0,0,0.633
8445,0.0243648,0.01724385,0.8010014,-0.05661351,-0.2174882,0,-11.4654,37.15588,-1038.866,0.631
8461,0.02637193,0.01638864,0.8008094,-0.05073557,-0.209075,0,0,0,0,0.628
8476,0.02813471,0.01495747,0.8004255,-0.0529178,-0.2059381,0,-14.43163,32.37261,-1032.861,0.627
8492,0.02926917,0.01349139,0.7996575,-0.05373751,-0.2016949,0,-2.929786,30.19153,-1042.036,0.625
8508,0.03033382,0.01254892,0.7987499,-0.05251252,-0.1986782,0,-2.415069,26.46384,-1034.963,0.623
8525,0.03420845,0.008779006,0.7962192,-0.05193485,-0.1885743,0,-13.05843,34.08782,-1015.297,0.621
8539,0.03420845,0.008779006,0.7962192,-0.05193485,-0.1885743,0,-13.05843,34.08782,-1015.297,0.621
8554,0.03506367,0.007679448,0.7956083,-0.06273916,-0.1857581,0,0,0,0,0.621
8570,0.03604105,0.006562438,0.7945262,-0.06240014,-0.1813385,0,-11.67042,39.42415,-1005.456,0.62
8586,0.03675663,0.005969026,0.7938805,-0.05321626,-0.1709091,0,-17.18934,39.10537,-1013.826,0.624
8601,0.03724533,0.005270894,0.7930427,-0.03777933,-0.154904,0,-15.44865,39.91909,-1018.046,0.624
8617,0.03721042,0.004450589,0.7923271,-0.03484598,-0.1465862,0,-14.8515,27.96906,-1023.884,0.623
8632,0.03696607,0.002792527,0.7899011,-0.04703677,-0.1427015,0,1.314643,50.17678,-1022.181,0.623
8648,0.03696607,0.002792527,0.7899011,-0.04703677,-0.1427015,0,1.314643,50.17678,-1022.181,0.623
8664,0.03499385,0.003944444,0.7802145,-0.02846413,-0.1036303,0,0,0,0,0.629
8679,0.03394666,0.004468043,0.7794291,-0.01227303,-0.08709742,0,308.0292,376.9401,-985.486,0.629
8695,0.02776819,0.00699877,0.7786263,0.06940076,-0.01255087,0,185.3642,203.2275,-974.8656,0.629
8710,0.02776819,0.00699877,0.7786263,0.06940076,-0.01255087,0,185.3642,203.2275,-974.8656,0.629
8726,0.0267908,0.006824237,0.777614,0.08355258,0.002727393,0,76.80923,105.8777,-979.4373,0.629
8742,0.02628466,0.005742133,0.7736521,0.09013749,0.01581512,0,-21.27911,8.411966,-986.4684,0.628
8757,0.02448697,0.005218534,0.7708072,0.09721185,0.0409051,0,-17.2663,13.48836,-973.6511,0.635
8773,0.02448697,0.005218534,0.7708072,0.09721185,0.0409051,0,-17.2663,13.48836,-973.6511,0.635
8788,0.0209614,0.005742133,0.7683986,0.1174286,0.06580811,0,-17.5917,6.189313,-949.5986,0.629
8804,0.0209614,0.005742133,0.7683986,0.1174286,0.06580811,0,-17.5917,6.189313,-949.5986,0.629
8820,0.01811652,0.007539823,0.7662693,0.1193774,0.06827271,0,-16.354,-2.348562,-971.2131,0.63
8835,0.01811652,0.007539823,0.7662693,0.1193774,0.06827271,0,-16.354,-2.348562,-971.2131,0.63
8851,0.01654572,0.01007055,0.7655188,0.1092362,0.0687497,0,-23.54666,5.939307,-987.9729,0.623
8866,0.01654572,0.01007055,0.7655188,0.1092362,0.0687497,0,-23.54666,5.939307,-987.9729,0.623
8882,0.01673771,0.01181588,0.763599,0.1099689,0.07456909,0,-17.45409,2.140327,-994.8909,0.622
8898,0.01673771,0.01181588,0.763599,0.1099689,0.07456909,0,0,0,0,0.622
8913,0.01715659,0.01261873,0.7631976,0.1264704,0.08006606,0,-16.24302,-0.3565524,-995.0071,0.618
8929,0.01715659,0.01261873,0.7631976,0.1264704,0.08006606,0,-16.24302,-0.3565524,-995.0071,0.618
8944,0.01783726,0.0135263,0.7631277,0.1220234,0.08172124,0,0,0,0,0.614
8960,0.01806416,0.01373574,0.7630405,0.1199308,0.08169997,0,-20.13039,5.721153,-1005.545,0.613
8976,0.01829105,0.01446878,0.7625518,0.1279927,0.08999199,0,-23.94782,7.166131,-998.33,0.611
8991,0.01829105,0.01446878,0.7625518,0.1279927,0.08999199,0,-23.94782,7.166131,-998.33,0.611
9007,0.01926843,0.01527163,0.7621329,0.1211373,0.09076991,0,-22.10909,-0.03688817,-992.2007,0.609
9022,0.01970477,0.01626647,0.7619933,0.1128593,0.08670907,0,-26.75632,5.041574,-994.1303,0.609
9038,0.01965241,0.01750565,0.7618013,0.1067268,0.085454,0,-20.67131,1.123599,-1007.138,0.608
9079,0.0185703,0.02054253,0.7618537,0.1172685,0.09492259,0,-25.20627,7.704332,-1013.035,0.607
9085,0.0185703,0.02054253,0.7618537,0.1172685,0.09492259,0,-25.20627,7.704332,-1013.035,0.607
9100,0.01665044,0.02420772,0.761365,0.1154855,0.09778766,0,-21.40659,14.23349,-1007.696,0.606
9116,0.01239184,0.02700024,0.7610508,0.1054798,0.100413,0,-21.10823,13.67502,-991.7734,0.603
9132,0.01239184,0.02700024,0.7610508,0.1054798,0.100413,0,-21.10823,13.67502,-991.7734,0.603
9147,0.0103149,0.02799508,0.7608064,0.1038227,0.09965663,0,-20.49438,13.75506,-991.9955,0.6
9163,0.007696902,0.02864085,0.7605621,0.09474464,0.1013427,0,-21.78735,15.68357,-1007.512,0.6
9179,0.003054326,0.02878048,0.759672,0.08326808,0.1024566,0,-24.65252,7.600817,-1014.511,0.599
9194,0.001134464,0.02918191,0.7594975,0.07886346,0.09924456,0,-16.67203,11.76574,-1019.275,0.599
9210,-0.0008901179,0.02984513,0.7623773,0.07739387,0.09953102,0,-17.17053,22.86446,-1043.576,0.599
9225,-0.006143559,0.03199188,0.7726398,0.0760262,0.1016179,0,-23.76547,26.78596,-1053.483,0.599
9241,-0.0100531,0.03282964,0.7795688,0.07208146,0.1003263,0,-27.1903,18.40837,-1038.837,0.599
9257,-0.01249656,0.03342305,0.7833561,0.07448963,0.1005167,0,-31.89306,5.259311,-1028.451,0.597
9272,-0.01249656,0.03342305,0.7833561,0.07448963,0.1005167,0,-31.89306,5.259311,-1028.451,0.597
9287,-0.0158825,0.03401647,0.7871959,0.07048712,0.09312414,0,-9.117148,-8.725642,-1037.212,0.597
9304,-0.01994911,0.03310889,0.7953291,0.05410498,0.08552169,0,-40.31811,23.59432,-999.8914,0.598
9319,-0.02054253,0.03275983,0.7970046,0.05312923,0.08249491,0,0,0,0,0.598
9335,-0.02242748,0.03096214,0.8043874,0.04700471,0.07591532,0,-13.0586,-1.555475,-987.5674,0.598
9350,-0.02293363,0.02991494,0.8079304,0.04217232,0.06963309,0,-22.11489,7.945465,-988.585,0.598
9366,-0.02298599,0.02820452,0.8131315,0.03249501,0.05902679,0,-16.65819,12.05938,-988.4355,0.599
9381,-0.02309071,0.02745403,0.8158541,0.02961276,0.05588979,0,-17.82711,10.77209,-984.8582,0.6
9397,-0.02316052,0.02562143,0.8209679,0.0299996,0.05219655,0,-16.27929,14.30725,-984.5231,0.601
9413,-0.02323033,0.02473132,0.8233416,0.03271594,0.05171954,0,-18.28226,10.23595,-983.2693,0.601
9428,-0.02356195,0.02370157,0.8280889,0.02903365,0.04574527,0,-16.36812,13.51726,-988.9485,0.603
9444,-0.02398082,0.02314307,0.8316843,0.02050712,0.03969561,0,-20.6371,11.95284,-990.1606,0.603
9459,-0.02398082,0.02314307,0.8316843,0.02050712,0.03969561,0,-20.6371,11.95284,-990.1606,0.603
9475,-0.02455678,0.02263692,0.8350877,0.01494866,0.03411516,0,-15.5444,11.6466,-983.5645,0.604
9490,-0.02483604,0.02237512,0.8378977,0.01730154,0.03450067,0,-15.99212,8.816792,-982.7296,0.605
9506,-0.02539454,0.02234021,0.843954,0.005952797,0.02163075,0,-8.508301,12.12854,-993.3344,0.611
9521,-0.02539454,0.02234021,0.843954,0.005952797,0.02163075,0,-8.508301,12.12854,-993.3344,0.611
9537,-0.02497566,0.02300344,0.8483347,-0.000493213,0.01569007,0,-19.67809,12.30524,-993.4022,0.613
9553,-0.0238761,0.02382374,0.8511971,0.001802011,0.01416999,0,-11.35302,14.18186,-991.3058,0.611
9568,-0.02302089,0.02431244,0.8539197,0.008566416,0.01284838,0,-14.47636,13.73684,-986.6956,0.612
9584,-0.02207842,0.02460914,0.856468,0.007592106,0.01170527,0,0,0,0,0.613
9600,-0.02136283,0.02469641,0.8594176,0.00574921,0.006802968,0,-21.67626,17.15309,-982.8058,0.615
9615,-0.02024582,0.02476622,0.8649852,-0.002636597,0.0009976533,0,-11.20685,11.87531,-979.6334,0.614
9631,-0.0196175,0.02469641,0.8680918,-0.005178512,-0.001705242,0,-21.83583,16.89003,-974.7366,0.616
9648,-0.01895428,0.02546435,0.8706226,-0.006954317,-0.004847662,0,-13.62244,10.53622,-983.8651,0.617
9662,-0.01829105,0.02581342,0.8730137,-0.01297598,-0.006879439,0,-11.92818,16.57327,-987.0375,0.619
9678,-0.01773255,0.02644174,0.8754746,-0.01905702,-0.009483287,0,-15.80292,14.8134,-983.5194,0.62
9693,-0.01654572,0.02694788,0.8774294,-0.02128396,-0.01217197,0,-13.15445,19.35386,-975.8607,0.623
9709,-0.01654572,0.02694788,0.8774294,-0.02128396,-0.01217197,0,-13.15445,19.35386,-975.8607,0.623
9724,-0.01551598,0.02750639,0.8794714,-0.02492104,-0.01698291,0,0,0,0,0.624
9740,-0.01373574,0.02815216,0.8816007,-0.02837629,-0.02049148,0,-5.029707,20.85735,-992.9742,0.626
9756,-0.01204277,0.02878048,0.8866273,-0.02798428,-0.02077791,0,-7.142005,30.46202,-1014.982,0.625
9771,-0.01082104,0.02982768,0.8953539,-0.02751414,-0.02105983,0,-10.93123,26.03808,-1024.495,0.626
9787,-0.008918632,0.02960078,0.9037839,-0.03313118,-0.02658107,0,-6.362988,16.41895,-1030.367,0.627
9802,-0.003071779,0.02808235,0.9188809,-0.04125485,-0.029676,0,-7.510175,21.8388,-1005.715,0.627
9818,-0.003071779,0.02808235,0.9188809,-0.04125485,-0.029676,0,-7.510175,21.8388,-1005.715,0.627
9833,-0.001361357,0.02743658,0.9239249,-0.0441083,-0.02826048,0,-20.82682,34.81561,-1000.853,0.627
9849,0.003141593,0.02574361,0.9382192,-0.05066868,-0.02957724,0,0,0,0,0.629
9865,0.004764749,0.0249233,0.9435425,-0.05296155,-0.02851558,0,-17.86302,27.48325,-1000.73,0.629
9880,0.006178466,0.02419026,0.9486039,-0.05243092,-0.0267977,0,-18.07987,28.73325,-995.2222,0.626
9896,0.008639379,0.02220059,0.958849,-0.05559676,-0.01986492,0,-20.76653,34.67099,-985.4609,0.628
9912,0.01007055,0.02075196,0.9672614,-0.05783433,-0.02163161,0,0,0,0,0.627
9927,0.01143191,0.01953023,0.9754994,-0.05654826,-0.01619662,0,-21.8354,26.88423,-990.354,0.628
9943,0.0130027,0.01778491,0.987036,-0.06322673,-0.0119376,0,-6.05874,16.94595,-1002.952,0.629
9958,0.01415462,0.0161443,0.9953787,-0.07046645,-0.009603177,0,-16.4177,20.70141,-1006.493,0.629
9974,0.0161443,0.01338668,1.01278,-0.06688708,-0.00475752,0,-8.738499,26.38978,-1007.098,0.631
9989,0.0161443,0.01338668,1.01278,-0.06688708,-0.00475752,0,-8.738499,26.38978,-1007.098,0.631
