Time(ms),Roll(Rads),Pitch(Rads),Yaw(Rads),VelX(m/s),VelY(m/s),VelZ(m/s),AccX(g x 10^-3),AccY(g x 10^-3),AccZ(g x 10^-3),Altitude(m)
0,0.0001570796,0.0002792527,0.004118977,0,0,0,-0.7952527,33.12626,-981.1855,0,
0,0.0001570796,0.0002792527,0.004118977,0,0,0,-0.7952527,33.12626,-981.1855,0
4,0.0001570796,0.0002792527,0.004118977,0,0,0,-0.7952527,33.12626,-981.1855,0
9,0.0001570796,0.0002617994,0.004101524,0,0,0,-0.6934984,34.74422,-983.5938,0
14,0.0001570796,0.0002617994,0.004101524,0,0,0,-0.6934984,34.74422,-983.5938,0
19,0.0001570796,0.0002792527,0.004101524,0,0,0,-0.7367905,31.86896,-982.0713,0
24,0.0001570796,0.0002792527,0.004101524,0,0,0,-0.8546689,28.20063,-981.145,0
29,0.0001570796,0.000296706,0.004101524,0,0,0,-0.8202423,28.57073,-980.9775,0
34,0.0001745329,0.000296706,0.00408407,0,0,0,-0.8670982,28.08411,-979.8613,0
39,0.0001745329,0.000296706,0.00408407,0,0,0,-0.7826356,30.81482,-981.707,0
44,0.0001919862,0.000296706,0.00408407,0,0,0,-0.8817303,29.91987,-980.7349,0
49,0.0001919862,0.000296706,0.004101524,0,0,0,-0.9184718,29.66806,-981.6919,0
54,0.0001919862,0.000296706,0.004101524,0,0,0,-0.950617,29.12806,-980.8257,0
59,0.0002094395,0.000296706,0.004101524,0,0,0,-0.9343362,28.97391,-980.8325,0
64,0.0002094395,0.000296706,0.004101524,0,0,0,-0.8720652,29.63492,-981.209,0
69,0.0002094395,0.000296706,0.004101524,0,0,0,-0.8540018,29.47024,-980.8945,0
74,0.0002094395,0.0002792527,0.004101524,0,0,0,-0.826177,29.49797,-981.2515,0
79,0.0002268928,0.0002792527,0.004101524,0,0,0,-0.8081197,29.38955,-981.0146,0
84,0.0002268928,0.0002792527,0.004101524,0,0,0,-0.7870598,29.26714,-980.9839,0
89,0.0002268928,0.0002792527,0.004101524,0,0,0,-0.7541344,29.47889,-981.1172,0
94,0.0002268928,0.0002792527,0.004101524,0,0,0,-0.7458683,29.42772,-980.9785,0
99,0.0002443461,0.0002792527,0.004118977,0,0,0,-0.7465378,29.47372,-981.1182,0
104,0.0002443461,0.0002792527,0.004118977,0,0,0,-0.7668171,29.46034,-981.0454,0
109,0.0002443461,0.0002792527,0.004118977,0,0,0,-0.7668171,29.46034,-981.0454,0
114,0.0002443461,0.0002792527,0.004118977,0,0,0,-0.8009771,29.40749,-981.0313,0
119,0.0002443461,0.0002792527,0.004118977,0,0,0,-0.8806407,29.46305,-981.0234,0
124,0.0002443461,0.0002792527,0.004118977,0,0,0,-0.9162014,29.48203,-981.0737,0
129,0.0002443461,0.0002792527,0.004101524,0,0,0,-0.9432217,29.46697,-981.0527,0
134,0.0002443461,0.000296706,0.004101524,0,0,0,-0.9590349,29.41368,-981.0449,0
139,0.0002443461,0.000296706,0.004101524,0,0,0,-0.9590349,29.41368,-981.0449,0
144,0.0002617994,0.000296706,0.004101524,0,0,0,-0.9568884,29.37915,-981.043,0
149,0.0002443461,0.000296706,0.004101524,0,0,0,-0.9455465,29.39481,-981.0591,0
154,0.0002443461,0.000296706,0.004101524,0,0,0,-0.9296777,29.41974,-981.0547,0
159,0.0002443461,0.000296706,0.004101524,0,0,0,-0.9074399,29.43092,-981.0498,0
164,0.0002617994,0.0002792527,0.004101524,0,0,0,-0.8752204,29.44644,-981.0586,0
169,0.0002617994,0.0002792527,0.004101524,0,0,0,-0.8353618,29.44387,-981.0498,0
174,0.0002792527,0.0002792527,0.00408407,0,0,0,-0.7931347,29.45377,-981.0547,0
179,0.0002792527,0.0002792527,0.004101524,0,0,0,-0.7587627,29.47593,-981.0547,0
184,0.0002792527,0.0002792527,0.004101524,0,0,0,-0.741325,29.50208,-981.0522,0
189,0.000296706,0.0002792527,0.004101524,0,0,0,-0.7452794,29.53301,-981.0552,0
194,0.000296706,0.0002792527,0.004101524,0,0,0,-0.7710493,29.55055,-981.0532,0
199,0.0003141593,0.0002792527,0.004101524,0,0,0,-0.8131471,29.55917,-981.0522,0
204,0.0003141593,0.0002792527,0.004101524,0,0,0,-0.8615856,29.55609,-981.0562,0
209,0.0003141593,0.0002792527,0.004101524,0,0,0,-0.9028262,29.53753,-981.0522,0
214,0.0003141593,0.0002792527,0.004101524,0,0,0,-0.9244897,29.50732,-981.0547,0
219,0.0003141593,0.0002792527,0.004101524,0,0,0,-0.9244897,29.50732,-981.0547,0
224,0.0003141593,0.0002792527,0.004101524,0,0,0,-0.90183,29.42445,-981.0537,0
229,0.0003141593,0.0002792527,0.004118977,0,0,0,0.6821495,30.84525,-981.0562,0
234,0.0003141593,0.0002792527,0.004118977,0,0,0,1.119932,32.6861,-981.0586,0
239,0.000296706,0.000296706,0.004101524,0,0,0,2.84207,36.08097,-981.0664,0
244,0.0002792527,0.000296706,0.004101524,0,0,0,1.130317,37.82778,-981.0718,0
249,0.0002443461,0.000296706,0.004101524,0,0,0,0.09075715,38.45134,-981.0737,0
254,0.0002268928,0.000296706,0.004101524,0,0,0,-1.143668,37.84517,-981.0752,0
259,0.0002094395,0.000296706,0.004101524,0,0,0,-1.882349,35.05075,-981.0674,0
264,0.0001919862,0.0003141593,0.004101524,0,0,0,-0.05501834,33.7127,-981.0645,0
269,0.0001919862,0.0003141593,0.004101524,0,0,0,-1.049196,30.07116,-981.0542,0
274,0.0002094395,0.0003141593,0.004101524,0,0,0,-0.07808238,29.20642,-981.0537,0
279,0.0002268928,0.0003141593,0.004101524,0,0,0,-1.315031,28.33729,-981.0508,0
284,0.0002268928,0.0003141593,0.004101524,0,0,0,-1.107024,30.30582,-981.0562,0
289,0.0002268928,0.0003141593,0.004101524,0,0,0,-0.677209,32.08603,-981.0605,0
294,0.0002268928,0.0003141593,0.004101524,0,0,0,-0.677209,32.08603,-981.0605,0
299,0.0002094395,0.000296706,0.004101524,0,0,0,-0.385632,35.03671,-979.5542,0
304,0.0001919862,0.000296706,0.004101524,0,0,0,-0.6297649,36.55376,-979.2148,0
309,0.0001745329,0.000296706,0.004101524,0,0,0,-0.5638936,37.31091,-977.6338,0
314,0.0001570796,0.000296706,0.004101524,0,0,0,-0.4013053,37.47956,-979.4429,0
319,0.0001570796,0.000296706,0.004101524,0,0,0,-0.4013053,37.47956,-979.4429,0
324,0.000122173,0.0003141593,0.004101524,0,0,0,-0.3924685,36.52335,-981.7417,0
329,0.0001047198,0.0003141593,0.004101524,0,0,0,-0.4629974,37.86493,-982.3672,0
334,8.726646E-05,0.0003141593,0.004101524,0,0,0,-0.6367564,34.98832,-980.4458,0
339,8.726646E-05,0.0003141593,0.004101524,0,0,0,-0.6673306,34.14548,-981.2759,0
344,8.726646E-05,0.0003141593,0.004101524,0,0,0,-0.6673306,34.14548,-981.2759,0
349,8.726646E-05,0.0003141593,0.00408407,0,0,0,-0.9260839,30.59596,-980.23,0
354,8.726646E-05,0.0003141593,0.00408407,0,0,0,-0.9260839,30.59596,-980.23,0
359,0.0001047198,0.000296706,0.00408407,0,0,0,-0.9610577,28.65001,-980.9248,0
367,0.0001047198,0.0003141593,0.00408407,0,0,0,-0.8234457,30.27028,-981.2119,0
372,0.000122173,0.0003141593,0.00408407,0,0,0,-0.8314667,29.66487,-980.7881,0
378,0.000122173,0.0003141593,0.004066617,0,0,0,0,0,0,0
397,8.726646E-05,0.0003141593,0.004066617,0,0,0,-0.8051534,31.71696,-980.9741,0
402,0.0001047198,0.0003141593,0.004066617,0,0,0,-0.8994881,29.48136,-981.0723,0
409,0.0001047198,0.0003141593,0.004066617,0,0,0,-0.9850444,27.4134,-981.0674,0
414,0.000122173,0.0003141593,0.00408407,0,0,0,-0.8390662,29.86797,-981.0894,0
419,0.000122173,0.0003141593,0.00408407,0,0,0,-0.7477224,31.53878,-981.0313,0
424,0.000122173,0.0003141593,0.00408407,0,0,0,-0.7477224,31.53878,-981.0313,0
429,0.0001047198,0.0003316125,0.00408407,0,0,0,-0.6266579,33.78957,-981.0708,0
434,0.0001047198,0.0003316125,0.00408407,0,0,0,-0.6187156,34.34321,-981.0552,0
439,8.726646E-05,0.0003316125,0.00408407,0,0,0,-0.6063036,35.31298,-981.0801,0
444,8.726646E-05,0.0003316125,0.00408407,0,0,0,-0.6960828,33.98701,-981.0557,0
449,8.726646E-05,0.0003316125,0.00408407,0,0,0,-0.859822,30.57039,-981.0581,0
454,0.0001047198,0.0003316125,0.00408407,0,0,0,-0.8939456,29.85148,-981.0576,0
459,0.000122173,0.0003316125,0.00408407,0,0,0,-0.9933077,27.30259,-981.0435,0
464,0.000122173,0.0003316125,0.004066617,0,0,0,-0.8819538,29.6549,-981.0601,0
469,0.000122173,0.0003316125,0.004066617,0,0,0,-0.8771812,29.5675,-981.0493,0
474,0.000122173,0.0003316125,0.004066617,0,0,0,-0.8495741,29.97523,-981.0566,0
479,0.000122173,0.0003316125,0.004066617,0,0,0,-0.8307466,30.04331,-981.0552,0
484,0.0001396263,0.0003316125,0.004066617,0,0,0,-0.8651505,28.70342,-981.0503,0
489,0.0001396263,0.0003316125,0.004066617,0,0,0,-0.8651505,28.70342,-981.0503,0
494,0.0001396263,0.0003316125,0.00408407,0,0,0,-0.8047957,29.28963,-981.0522,0
499,0.0001396263,0.0003316125,0.00408407,0,0,0,-0.8047957,29.28963,-981.0522,0
504,0.0001570796,0.0003316125,0.00408407,0,0,0,-0.7973726,29.6305,-981.0552,0
509,0.0001570796,0.0003316125,0.004101524,0,0,0,-0.8316353,29.18603,-981.0522,0
514,0.0001570796,0.0003316125,0.004101524,0,0,0,-0.8380046,29.49796,-981.0542,0
519,0.0001570796,0.0003316125,0.004101524,0,0,0,-0.8380046,29.49796,-981.0542,0
524,0.0001570796,0.0003316125,0.004101524,0,0,0,-0.8648374,29.37792,-981.0537,0
529,0.0001745329,0.0003316125,0.004101524,0,0,0,-0.8893687,29.52885,-981.0537,0
534,0.0001745329,0.0003316125,0.004118977,0,0,0,-0.896104,29.37009,-981.0542,0
539,0.0001919862,0.0003316125,0.004118977,0,0,0,-0.8818065,29.48366,-981.0537,0
544,0.0001919862,0.0003316125,0.004118977,0,0,0,-0.8718957,29.44273,-981.0532,0
549,0.0001919862,0.0003316125,0.004118977,0,0,0,-0.8718957,29.44273,-981.0532,0
554,0.0002094395,0.0003316125,0.004118977,0,0,0,-0.8623935,29.53118,-981.0532,0
559,0.0002094395,0.0003316125,0.004136431,0,0,0,-0.867781,29.48456,-981.0542,0
564,0.0002094395,0.0003316125,0.004136431,0,0,0,-0.867781,29.48456,-981.0542,0
569,0.0002094395,0.0003316125,0.004136431,0,0,0,-0.8651763,29.52234,-981.0537,0
574,0.0002094395,0.0003316125,0.004136431,0,0,0,-0.8701273,29.51291,-979.541,0
579,0.0002094395,0.0003490658,0.004136431,0,0,0,-0.8953412,29.56861,-974.248,0
584,0.0002268928,0.0003490658,0.004136431,0,0,0,-0.9031604,29.52692,-974.1309,0
589,0.0002094395,0.0003490658,0.004136431,0,0,0,-0.9079937,29.50909,-975.4365,0
594,0.0002094395,0.0003490658,0.004153884,0,0,0,-0.8310572,30.95551,-979.5508,0
599,0.0002094395,0.0003490658,0.004153884,0,0,0,-0.8310572,30.95551,-979.5508,0
604,0.0001919862,0.0003316125,0.004153884,0,0,0,-0.6764069,34.38973,-982.4102,0
609,0.0001919862,0.0003316125,0.004136431,0,0,0,-0.7274532,32.91185,-981.9458,0
614,0.0001919862,0.0003316125,0.004136431,0,0,0,-0.6914773,33.46432,-979.8267,0
619,0.0001919862,0.0003141593,0.004136431,0,0,0,-0.7749727,30.39406,-980.8081,0
624,0.0001919862,0.0003141593,0.004136431,0,0,0,-0.811529,28.69375,-980.8271,0
629,0.0001919862,0.0003141593,0.004136431,0,0,0,-0.811529,28.69375,-980.8271,0
634,0.0002094395,0.0003141593,0.004136431,0,0,0,-0.8151733,27.97243,-981.3115,0
639,0.0002094395,0.0003141593,0.004118977,0,0,0,-0.7117149,30.98185,-980.8203,0
644,0.0002094395,0.0003141593,0.004118977,0,0,0,-0.8320735,28.94073,-981.0205,0
649,0.0002094395,0.0003141593,0.004101524,0,0,0,-0.825718,30.11922,-980.9316,0
654,0.0002094395,0.0003316125,0.004101524,0,0,0,-0.9002927,29.25648,-981.1401,0
659,0.0002268928,0.0003316125,0.004118977,0,0,0,-0.9372329,29.08701,-981.147,0
664,0.0002268928,0.0003316125,0.004118977,0,0,0,-0.9236279,29.85872,-980.9961,0
669,0.0002268928,0.0003316125,0.004118977,0,0,0,-0.9584595,29.20218,-981.0684,0
674,0.0002268928,0.0003316125,0.004118977,0,0,0,-0.9403983,29.62412,-981.0068,0
679,0.0002268928,0.0003141593,0.004101524,0,0,0,-0.9395127,29.38251,-981.0654,0
684,0.0002443461,0.0003141593,0.004101524,0,0,0,-0.9212659,29.25624,-981.084,0
689,0.0002443461,0.0003141593,0.004101524,0,0,0,-0.884027,29.5907,-979.5234,0
694,0.0002443461,0.0003141593,0.004101524,0,0,0,-0.884027,29.5907,-979.5234,0
699,0.0002617994,0.0003141593,0.004101524,0,0,0,-0.833734,29.64252,-975.7456,0
704,0.0002617994,0.0003141593,0.004101524,0,0,0,-0.833734,29.64252,-975.7456,0
709,0.0002792527,0.0003141593,0.004101524,0,0,0,-0.787799,29.50582,-978.8862,0
714,0.0002792527,0.0003141593,0.004118977,0,0,0,-0.7810476,29.57992,-981.1689,0
719,0.0002792527,0.0003141593,0.004118977,0,0,0,-0.8111271,29.47584,-981.5137,0
724,0.0002792527,0.0003141593,0.004118977,0,0,0,-0.8557433,29.55544,-979.8667,0
729,0.0002792527,0.0003141593,0.004118977,0,0,0,0,0,0,0
734,0.0002792527,0.0003141593,0.004118977,0,0,0,-0.8450907,31.08516,-977.2075,0
739,0.0002792527,0.0003316125,0.004118977,0,0,0,-0.6463257,36.35382,-978.2061,0
744,0.0002792527,0.0003316125,0.004118977,0,0,0,-0.6463257,36.35382,-978.2061,0
749,0.0002268928,0.0003316125,0.004118977,0,0,0,-0.5345776,38.47942,-980.8438,0
754,0.0002268928,0.0003316125,0.004118977,0,0,0,-0.5345776,38.47942,-980.8438,0
759,0.0002094395,0.0003316125,0.004118977,0,0,0,-0.5727243,37.84196,-979.9321,0
764,0.0001919862,0.0003316125,0.004118977,0,0,0,-0.6830868,35.00085,-981.8408,0
769,0.0001745329,0.0003316125,0.004118977,0,0,0,-0.7372534,33.51654,-980.9517,0
774,0.0001745329,0.0003316125,0.004118977,0,0,0,-0.7372534,33.51654,-980.9517,0
779,0.0001570796,0.0003316125,0.004118977,0,0,0,-0.5885895,36.15398,-981.5239,0
784,0.000122173,0.0003316125,0.004118977,0,0,0,-0.441483,37.80195,-981.5967,0
789,0.0001047198,0.0003316125,0.004101524,0,0,0,-0.3927333,38.55241,-980.9722,0
794,0.0001047198,0.0003316125,0.004101524,0,0,0,-0.3927333,38.55241,-980.9722,0
799,8.726646E-05,0.0003490658,0.004101524,0,0,0,-0.4418295,37.56517,-981.2876,0
804,8.726646E-05,0.0003490658,0.004101524,0,0,0,-0.4418295,37.56517,-981.2876,0
809,6.981317E-05,0.0003490658,0.004101524,0,0,0,-0.5160717,37.64535,-981.2412,0
814,5.235988E-05,0.0003490658,0.004118977,0,0,0,-0.5160717,37.64535,-981.2412,0
819,3.490658E-05,0.0003490658,0.004118977,0,0,0,-0.5652411,37.60537,-981.0269,0
824,1.745329E-05,0.0003490658,0.004118977,0,0,0,-0.6759089,35.65956,-981.0469,0
829,0,0.0003490658,0.004118977,0,0,0,-0.7367058,34.17068,-981.1602,0
834,0,0.0003490658,0.004118977,0,0,0,-0.8867963,30.27256,-979.4351,0
839,0,0.0003490658,0.004118977,0,0,0,-0.9153534,28.9536,-977.7441,0
844,1.745329E-05,0.0003490658,0.004118977,0,0,0,-0.9322346,28.42938,-974.2271,0
849,1.745329E-05,0.0003490658,0.004101524,0,0,0,-0.8353394,30.36161,-973.6226,0
854,1.745329E-05,0.0003490658,0.004101524,0,0,0,-0.8353394,30.36161,-973.6226,0
859,3.490658E-05,0.0003316125,0.004101524,0,0,0,-0.8069209,29.75344,-980.8652,0
864,3.490658E-05,0.0003316125,0.004101524,0,0,0,-0.8418913,28.97008,-980.3286,0
869,3.490658E-05,0.0003316125,0.004101524,0,0,0,-0.8418913,28.97008,-980.3286,0
874,3.490658E-05,0.0003316125,0.004101524,0,0,0,-0.8186224,29.30881,-980.7471,0
879,3.490658E-05,0.0003316125,0.00408407,0,0,0,-0.8244445,29.69303,-977.687,0
884,3.490658E-05,0.0003316125,0.00408407,0,0,0,-0.8283899,29.49825,-978.5439,0
889,3.490658E-05,0.0003316125,0.00408407,0,0,0,-0.8349093,29.37346,-981.3706,0
894,3.490658E-05,0.0003316125,0.00408407,0,0,0,-0.8349093,29.37346,-981.3706,0
899,5.235988E-05,0.0003141593,0.00408407,0,0,0,-0.836968,29.38553,-982.9756,0
904,5.235988E-05,0.0003141593,0.004066617,0,0,0,-0.8673077,29.50588,-980.4316,0
909,6.981317E-05,0.0003141593,0.004066617,0,0,0,-0.8069144,31.37691,-980.2671,0
914,6.981317E-05,0.0003141593,0.004066617,0,0,0,-0.8069144,31.37691,-980.2671,0
919,5.235988E-05,0.0003141593,0.004066617,0,0,0,-0.7352777,32.88425,-981.2524,0
924,5.235988E-05,0.0003141593,0.00408407,0,0,0,-0.8422846,30.0706,-980.9375,0
929,6.981317E-05,0.0003316125,0.00408407,0,0,0,-0.8882561,28.81621,-981.1665,0
934,6.981317E-05,0.0003316125,0.00408407,0,0,0,-0.9217742,28.23218,-980.8223,0
939,6.981317E-05,0.0003316125,0.00408407,0,0,0,-0.9217742,28.23218,-980.8223,0
944,6.981317E-05,0.0003490658,0.004066617,0,0,0,-0.928836,29.25334,-981.1665,0
949,8.726646E-05,0.0003490658,0.004066617,0,0,0,-0.920459,30.29094,-981.0039,0
954,8.726646E-05,0.0003490658,0.004066617,0,0,0,-0.9951665,29.05397,-981.1216,0
959,0.0001047198,0.0003490658,0.004066617,0,0,0,-0.9929708,29.20592,-980.9868,0
964,0.0001047198,0.0003316125,0.004066617,0,0,0,-0.9566486,29.56774,-981.0454,0
969,0.0001047198,0.0003316125,0.004066617,0,0,0,-0.9566486,29.56774,-981.0454,0
974,0.0001047198,0.0003316125,0.004066617,0,0,0,-0.7883409,31.29019,-981.0332,0
979,0.0001047198,0.0003316125,0.004066617,0,0,0,-0.7883409,31.29019,-981.0332,0
984,0.0001047198,0.0003316125,0.004066617,0,0,0,-0.6651152,32.82577,-981.0908,0
989,8.726646E-05,0.0003316125,0.004066617,0,0,0,-0.4687532,36.31231,-981.0508,0
994,8.726646E-05,0.0003316125,0.004066617,0,0,0,-0.4301781,36.52522,-981.0664,0
999,6.981317E-05,0.0003316125,0.004066617,0,0,0,-0.4253009,36.56425,-981.0825,0
1004,5.235988E-05,0.0003316125,0.004066617,0,0,0,-0.5370507,34.43676,-981.0537,0
1009,5.235988E-05,0.0003316125,0.004066617,0,0,0,-0.5570462,34.83049,-981.0776,0
1014,1.745329E-05,0.0003316125,0.004066617,0,0,0,-0.5237834,36.548,-981.0659,0
1020,0,0.0003316125,0.004066617,0,0,0,-0.5091761,37.61308,-981.0718,0
1025,-1.745329E-05,0.0003316125,0.004049164,0,0,0,-0.6266931,35.2456,-981.064,0
1030,-1.745329E-05,0.0003316125,0.004031711,0,0,0,-0.6760219,33.93686,-981.0679,0
1035,-1.745329E-05,0.0003316125,0.004031711,0,0,0,-0.6760219,33.93686,-981.0679,0
1040,-1.745329E-05,0.0003316125,0.004031711,0,0,0,-0.88315,28.98452,-981.0527,0
1045,-1.745329E-05,0.0003316125,0.004031711,0,0,0,-0.9108968,28.55931,-981.0522,0
1050,0,0.0003316125,0.004049164,0,0,0,-0.9107851,28.84569,-981.0513,0
1055,0,0.0003141593,0.004049164,0,0,0,-0.8531273,30.37504,-981.0566,0
1060,0,0.0003141593,0.004049164,0,0,0,-0.8917983,29.37663,-981.0527,0
1065,0,0.0003141593,0.004049164,0,0,0,-0.8917983,29.37663,-981.0527,0
1070,0,0.0003141593,0.004066617,0,0,0,-0.8553215,29.85449,-981.0547,0
1075,1.745329E-05,0.000296706,0.004066617,0,0,0,-0.8223678,29.33382,-981.0522,0
1080,1.745329E-05,0.000296706,0.004066617,0,0,0,-0.7849257,29.69469,-981.0547,0
1085,1.745329E-05,0.000296706,0.004066617,0,0,0,-0.7239977,30.9506,-981.0571,0
1090,1.745329E-05,0.0003141593,0.004049164,0,0,0,-0.6452092,33.05241,-981.061,0
1095,1.745329E-05,0.0003141593,0.004049164,0,0,0,-0.6452092,33.05241,-981.061,0
1100,0,0.0003141593,0.004049164,0,0,0,-0.5365137,36.26046,-981.0708,0
1105,-3.490658E-05,0.0003141593,0.004049164,0,0,0,-0.5973654,37.06438,-979.5586,0
1110,-3.490658E-05,0.0003316125,0.004049164,0,0,0,-0.7629395,34.41779,-977.6973,0
1115,-3.490658E-05,0.0003316125,0.004049164,0,0,0,-1.011982,29.79735,-974.248,0
1120,-3.490658E-05,0.0003316125,0.004049164,0,0,0,-1.011982,29.79735,-974.248,0
1125,-1.745329E-05,0.0003141593,0.004049164,0,0,0,-1.011832,29.44475,-975.4355,0
1130,-1.745329E-05,0.0003141593,0.004049164,0,0,0,-0.8824646,31.31439,-978.041,0
1135,-1.745329E-05,0.0003141593,0.004049164,0,0,0,-0.8824646,31.31439,-978.041,0
1140,-1.745329E-05,0.0003141593,0.004049164,0,0,0,-0.8824646,31.31439,-978.041,0
1145,-1.745329E-05,0.0003141593,0.004049164,0,0,0,-0.8824646,31.31439,-978.041,0
1150,-1.745329E-05,0.0003141593,0.004049164,0,0,0,-0.8824646,31.31439,-978.041,0
1155,-1.745329E-05,0.0003141593,0.004049164,0,0,0,-0.8824646,31.31439,-978.041,0
1160,-1.745329E-05,0.0003141593,0.004049164,0,0,0,-0.8824646,31.31439,-978.041,0
1166,-1.745329E-05,0.0003141593,0.004049164,0,0,0,-0.8824646,31.31439,-978.041,0
1171,-3.490658E-05,0.0003316125,0.004066617,-7.710088E-05,-6.877943E-05,0,-0.8495932,29.25412,-978.9531,0
1176,-3.490658E-05,0.0003316125,0.00408407,-9.648396E-05,-6.230867E-05,0,-0.9425962,28.95269,-975.8032,0
1181,-3.490658E-05,0.0003316125,0.004066617,-0.0001054469,-6.826568E-05,0,-0.9376321,29.22804,-977.9761,0
1186,-3.490658E-05,0.0003316125,0.004066617,-0.0001127743,-6.465003E-05,0,-0.911492,29.5935,-981.0381,0
1191,-5.235988E-05,0.0003316125,0.004049164,-0.0001191955,-6.941169E-05,0,-0.9115055,29.24035,-982.7544,0
1196,-5.235988E-05,0.0003316125,0.004049164,-0.0001240274,-6.038139E-05,0,-0.8731788,29.80879,-982.4512,0
1201,-5.235988E-05,0.0003316125,0.004049164,-0.0001240274,-6.038139E-05,0,-0.8731788,29.80879,-982.4512,0
1206,-5.235988E-05,0.0003316125,0.004049164,-0.0001317774,-6.216257E-05,0,-0.8474625,29.46015,-980.2949,0
1211,-5.235988E-05,0.0003316125,0.004049164,-0.000134049,-5.931576E-05,0,-0.8153381,29.57158,-980.5815,0
1216,-5.235988E-05,0.0003316125,0.004049164,-0.000134049,-5.931576E-05,0,-0.8153381,29.57158,-980.5815,0
1221,-5.235988E-05,0.0003316125,0.004049164,-0.0001355724,-2.330095E-05,0,-0.726496,31.09743,-981.3633,0
1226,-6.981317E-05,0.0003316125,0.004049164,-0.0001354678,1.303964E-05,0,-0.7261962,31.2872,-981.0752,0
1231,-8.726646E-05,0.0003316125,0.004066617,-0.0001342013,8.066897E-05,0,-0.6687396,32.90569,-980.9268,0
1236,-8.726646E-05,0.0003316125,0.004066617,-0.0001351785,9.597211E-05,0,-0.7544951,31.13591,-980.8877,0
1241,-0.0001047198,0.0003316125,0.004066617,-0.0001374177,8.095631E-05,0,-0.8110957,29.97655,-981.125,0
1246,-0.0001047198,0.0003316125,0.004066617,-0.0001407498,4.046084E-05,0,-0.8678043,28.82605,-981.1206,0
1251,-8.726646E-05,0.0003316125,0.004066617,-0.0001441994,-1.140921E-05,0,-0.8924494,28.10887,-982.5859,0
1256,-0.0001047198,0.0003316125,0.004066617,-0.0001437316,2.35542E-05,0,-0.7385924,31.51618,-984.417,0
1261,-0.0001047198,0.0003316125,0.004066617,-0.0001434994,4.014548E-05,0,-0.7389073,30.96227,-987.8105,0
1266,-0.0001047198,0.0003316125,0.004066617,-0.0001434994,4.014548E-05,0,-0.7389073,30.96227,-987.8105,0
1271,-0.000122173,0.0003316125,0.004066617,-0.0001420341,0.0001066143,0,-0.753806,30.53909,-990.0518,0
1276,-0.000122173,0.0003490658,0.00408407,-0.0001445777,7.726385E-05,0,-0.8126405,29.60546,-989.376,0
1281,-0.000122173,0.0003490658,0.00408407,-0.0001445777,7.726385E-05,0,-0.8126405,29.60546,-989.376,0
1286,-0.000122173,0.0003316125,0.00408407,-0.0001525549,-2.922293E-05,0,-0.9209307,27.88468,-988.6753,0
1291,-0.000122173,0.0003316125,0.00408407,-0.0001540557,-2.670326E-05,0,-0.8253824,30.2411,-988.4868,0
1296,-0.000122173,0.0003316125,0.004101524,-0.0001561838,-5.286611E-05,0,-0.8565412,29.0467,-989.3101,0
1301,-0.000122173,0.0003316125,0.004101524,-0.0001564652,-5.084024E-05,0,-0.7909445,30.09544,-988.9429,0
1306,-0.000122173,0.0003316125,0.004101524,-0.0001555219,-3.89469E-05,0,-0.7470252,30.52677,-988.7153,0
1311,-0.0001396263,0.0003316125,0.00408407,-0.000153791,-2.007088E-05,0,-0.719691,30.89496,-987.3218,0
1316,-0.0001396263,0.0003316125,0.004101524,-0.0001499054,4.727248E-05,0,-0.6272772,33.05919,-985.3213,0
1321,-0.0001570796,0.0003141593,0.00408407,-0.0001489325,5.428735E-05,0,-0.7302456,30.90895,-982.1421,0
1326,-0.0001570796,0.0003316125,0.00408407,-0.0001488842,4.506756E-05,0,-0.7584074,30.28688,-980.4341,0
1331,-0.0001570796,0.0003316125,0.00408407,-0.0001488842,4.506756E-05,0,-0.7584074,30.28688,-980.4341,0
1336,-0.0001396263,0.0003316125,0.004101524,-0.0001540873,-5.287368E-05,0,-0.8783489,28.14153,-977.1724,0
1341,-0.0001570796,0.0003490658,0.004101524,-0.000156075,-4.900678E-05,0,-0.8331336,30.29172,-974.9512,0
1346,-0.0001570796,0.0003490658,0.004101524,-0.0001604445,-6.923915E-05,0,-0.9366919,29.31638,-972.7856,0
1351,-0.0001570796,0.0003490658,0.004118977,-0.0001644262,-5.820217E-05,0,-0.9390664,30.53447,-972.4287,0
1356,-0.0001570796,0.0003490658,0.004118977,-0.0001644262,-5.820217E-05,0,-0.9390664,30.53447,-972.4287,0
1361,-0.0001745329,0.0003490658,0.004101524,-0.0001757009,-9.817897E-05,0,-1.032707,29.27598,-975.4541,0
1366,-0.0001570796,0.0003490658,0.004101524,-0.0001797492,-0.0001048666,0,-1.002489,29.65989,-976.8848,0
1371,-0.0001570796,0.0003490658,0.004101524,-0.0001824485,-0.000121124,0,-0.9693425,29.22168,-980.436,0
1376,-0.0001570796,0.0003490658,0.004101524,-0.0001832459,-0.0001240163,0,-0.9084125,29.69083,-981.3901,0
1381,-0.0001570796,0.0003490658,0.004101524,-0.0001833113,-0.0001355998,0,-0.8820662,29.31657,-982.0342,0
1386,-0.0001570796,0.0003490658,0.004101524,-0.0001833113,-0.0001355998,0,-0.8820662,29.31657,-982.0342,0
1391,-0.0001745329,0.0003665191,0.004101524,-0.0001815932,-0.0001484775,0,-0.8175663,29.55253,-980.3105,0
1396,-0.0001745329,0.0003665191,0.004118977,-0.0001803161,-0.0001553196,0,-0.7972482,29.3927,-981.0479,0
1401,-0.0001745329,0.0003665191,0.004101524,-0.0001791038,-0.0001562545,0,-0.7891126,29.59979,-980.6504,0
1406,-0.0001745329,0.0003665191,0.004101524,-0.0001783826,-0.000160304,0,-0.804269,29.46006,-981.4639,0
1411,-0.0001745329,0.0003665191,0.004101524,-0.0001784254,-0.000164042,0,-0.8332502,29.4504,-981.1851,0
1416,-0.0001745329,0.0003665191,0.004101524,-0.0001791095,-0.0001660875,0,-0.8577665,29.49922,-980.9126,0
1421,-0.0001745329,0.0003665191,0.004101524,-0.0001798743,-0.0001697956,0,-0.8733979,29.4194,-981.1011,0
1426,-0.0001745329,0.0003490658,0.004101524,-0.0001804499,-0.0001712275,0,-0.8730748,29.49405,-980.8926,0
1431,-0.0001745329,0.0003490658,0.00408407,-0.0002163437,-0.0001716696,0,-2.356282,29.52499,-981.1499,0
1436,-0.0001745329,0.0003490658,0.00408407,-0.0002554752,-0.0001716087,0,-2.676855,29.53778,-981.1006,0
1441,-0.0001745329,0.0003316125,0.00408407,-0.0003267823,-0.0001689212,0,-4.219535,29.63576,-981.0151,0
1446,-0.0001745329,0.0003316125,0.00408407,-0.0003267823,-0.0001689212,0,-4.219535,29.63576,-981.0151,0
1451,-0.0001745329,0.0003316125,0.004101524,-0.0003365824,-0.0001699543,0,-1.347248,29.49644,-980.9941,0
1456,-0.0001919862,0.0003316125,0.004101524,-0.0002994658,-0.0001722287,0,-0.1511226,29.43465,-981.0771,0
1461,-0.0001919862,0.0003490658,0.004101524,-0.0002525834,-0.0001750622,0,0.4426883,29.41492,-981.0654,0
1466,-0.0002094395,0.0003490658,0.00408407,-0.0002575651,-0.0001752824,0,-1.473766,29.52052,-981.0386,0
1471,-0.0002094395,0.0003665191,0.00408407,-0.0002429458,-0.0001773661,0,-0.6797109,29.45105,-981.0728,0
1476,-0.0002094395,0.0003665191,0.004066617,-0.0002555602,-0.0001786687,0,-1.732194,29.47873,-981.0347,0
1481,-0.0002094395,0.0003665191,0.004066617,-0.0002387693,-0.000182257,0,-0.5775235,29.37586,-981.0586,0
1486,-0.0002268928,0.0003665191,0.004066617,-0.000227528,-0.0001861631,0,-0.730275,29.35153,-981.0591,0
1491,-0.0002268928,0.0003665191,0.004066617,-0.0002259299,-0.0001892095,0,-1.08508,29.36337,-981.0464,0
1496,-0.0002268928,0.0003665191,0.004066617,-0.0002259299,-0.0001892095,0,-1.08508,29.36337,-981.0464,0
1501,-0.0002268928,0.0003665191,0.004049164,-0.000218495,-0.0001933056,0,-1.161687,29.41432,-981.0464,0
1506,-0.0002268928,0.0003665191,0.004049164,-0.000218495,-0.0001933056,0,-1.161687,29.41432,-981.0464,0
1511,-0.0002268928,0.0003665191,0.004049164,-0.0002091045,-0.0001564546,0,-0.7178628,30.98778,-979.5469,0
1516,-0.0002617994,0.0003665191,0.004049164,-0.0001883694,7.794629E-05,0,-0.5900676,36.49623,-974.2593,0
1521,-0.000296706,0.0003665191,0.004049164,-0.0001744408,0.0002545979,0,-0.3946312,38.17758,-972.6431,0
1526,-0.0003141593,0.0003665191,0.004049164,-0.0001657333,0.0004232324,0,-0.5574352,38.75521,-972.0874,0
1531,-0.0003490658,0.0003490658,0.004049164,-0.0001578066,0.0005170373,0,-0.5553978,36.52559,-972.7578,0
1536,-0.0003490658,0.0003490658,0.004049164,-0.0001578066,0.0005170373,0,-0.5553978,36.52559,-972.7578,0
1541,-0.0003490658,0.0003490658,0.004049164,-0.0001545869,0.0004544385,0,-0.8530669,30.45808,-973.4131,0
1546,-0.0003490658,0.0003490658,0.004049164,-0.0001545869,0.0004544385,0,-0.8530669,30.45808,-973.4131,0
1551,-0.0003490658,0.0003665191,0.004066617,-0.0001581128,0.0002626062,0,-0.9222677,28.86732,-972.7949,0
1557,-0.0003490658,0.0003665191,0.004066617,-0.0001581128,0.0002626062,0,-0.9222677,28.86732,-972.7949,0
1562,-0.0003490658,0.0003490658,0.004066617,-0.0001602967,0.0001559954,0,-0.8760567,30.24493,-973.4009,0
1567,-0.0003490658,0.0003490658,0.004066617,-0.0001988448,0.0001132678,0,-2.445331,29.83666,-973.2725,0
1572,-0.0003490658,0.0003490658,0.004066617,-0.0002770169,7.850088E-05,0,-4.274816,29.98665,-973.4341,0
1577,-0.0003490658,0.0003316125,0.004066617,-0.0004291404,3.728008E-05,0,-7.71551,29.57283,-974.6821,0
1582,-0.0003490658,0.0003141593,0.004066617,-0.0005649509,6.735718E-06,0,-7.786412,29.83161,-976.6157,0
1587,-0.0003490658,0.000296706,0.00408407,-0.0006521632,-1.986217E-05,0,-6.454304,29.86083,-980.1187,0
1592,-0.0003490658,0.000296706,0.00408407,-0.0006303789,-5.115104E-05,0,-2.389345,29.54298,-981.6875,0
1597,-0.0003316125,0.0003141593,0.00408407,-0.0005402998,-8.109558E-05,0,0.5155513,29.45193,-982.3169,0
1602,-0.0003316125,0.0003141593,0.00408407,-0.0004623441,-0.0001115672,0,0.4263748,29.28781,-981.5557,0
1607,-0.0003316125,0.0003141593,0.004101524,-0.0004039498,-0.0001358489,0,-0.02266409,29.39993,-980.2852,0
1612,-0.0003316125,0.0003316125,0.004101524,-0.0003644425,-0.0001187233,0,-0.5374446,31.00442,-980.9263,0
1617,-0.0003316125,0.0003316125,0.004101524,-0.0002610286,-9.901501E-05,0,2.293021,31.19941,-980.6899,0
1622,-0.0003490658,0.0003490658,0.004101524,-8.491698E-05,-4.635852E-05,0,5.79587,32.66582,-981.5513,0
1627,-0.0003490658,0.0003839724,0.004101524,0.0001242201,-4.808931E-05,0,8.011372,30.67212,-981.1455,0
1632,-0.0003490658,0.0003839724,0.004101524,0.0001242201,-4.808931E-05,0,6.805887,29.64815,-980.9194,0
1637,-0.0003490658,0.0004014257,0.004101524,0.0003434054,-0.0001244323,0,3.772116,28.56035,-981.0527,0
1642,-0.0003490658,0.000418879,0.004101524,0.0002904114,-0.0001790588,0,-0.718206,28.13302,-980.8906,0
1647,-0.0003490658,0.000418879,0.004101524,0.0002189118,-0.0001793344,0,-1.703287,30.12537,-981.1772,0
1652,-0.0003490658,0.0004014257,0.004101524,0.000141359,-0.0001998786,0,-2.26807,29.28918,-981.085,0
1657,-0.0003490658,0.0004014257,0.004101524,0.0001093401,-0.0001947036,0,-0.7340671,30.25986,-981.0278,0
1662,-0.0003490658,0.0004014257,0.004118977,9.464943E-05,-0.0002941577,0,-0.1574706,25.96449,-981.0703,0
1667,-0.0003490658,0.0004014257,0.004049164,6.463602E-05,-0.000321224,0,-0.836924,28.49187,-980.9897,0
1672,-0.0004537856,0.0004014257,0.003961897,7.997059E-05,-0.0003678633,0,0.8875708,27.79105,-981.0811,0
1677,-0.0004712389,0.0004014257,0.003839724,0.0001557488,-0.0003200862,0,3.456202,31.49231,-981.061,0
1682,-0.0004712389,0.0004363323,0.003892084,0.0002975547,-0.0001380036,0,6.591219,37.22064,-981.0547,0
1687,-0.0004712389,0.0004363323,0.003892084,0.0002975547,-0.0001380036,0,6.591219,37.22064,-981.0547,0
1692,-0.0002792527,0.0004537856,0.004450589,0.0005164642,7.841647E-05,0,4.732777,36.5325,-979.5313,0
1697,-0.000418879,0.0003839724,0.004520403,0.000603676,-6.127427E-05,0,5.937602,25.70944,-977.6807,0
1703,-0.000418879,0.0003316125,0.00429351,0.0007387845,-0.0001437505,0,8.230909,27.43398,-977.2568,0
1708,-0.0004886922,0.0003141593,0.003874631,0.00107878,-0.0002009159,0,17.26222,28.23918,-980.8398,0
1713,-0.0004537856,0.0003490658,0.003665191,0.001328147,-0.0002458846,0,15.17758,28.41518,-986.0093,0
1718,-0.0002617994,0.0004014257,0.003700098,0.001448596,-4.723181E-05,0,11.17341,37.84566,-988.1694,0
1723,-0.0003839724,0.0004363323,0.00397935,0.001247475,-4.527476E-05,0,-1.382292,30.92929,-984.9804,0
1728,-0.0003141593,0.0004537856,0.004433136,0.0009701425,1.794373E-05,0,-5.352593,33.31609,-977.2153,0
1733,-0.0004712389,0.0004712389,0.004607669,0.0008194532,3.871511E-05,0,-1.288085,32.17028,-976.0389,0
1738,-0.0005410521,0.0004712389,0.004729842,0.0006717503,-3.922475E-05,0,-1.813476,28.34979,-979.3646,0
1743,-0.0005061455,0.0004363323,0.00439823,0.0006406244,0.0001281241,0,2.274634,37.98815,-989.3476,0
1748,-0.0006457719,0.0003665191,0.004014257,0.0005369767,0.0001863796,0,-0.9488522,34.54819,-990.1528,0
1753,-0.0006457719,0.0003665191,0.004014257,0.0005369767,0.0001863796,0,-0.9488522,34.54819,-990.1528,0
1758,-0.0004014257,0.0003316125,0.003577925,0.0008049353,0.0003869452,0,15.30951,40.20023,-975.292,0
1763,-0.0004014257,0.0003316125,0.003577925,0.0008049353,0.0003869452,0,15.30951,40.20023,-975.292,0
1768,-0.0002792527,0.000593412,0.00408407,0.001269803,0.0004893582,0,20.90412,45.56311,-977.7509,0
1773,-0.0006806784,0.000715585,0.004677482,0.001311874,0.0003486269,0,8.695012,28.21667,-986.7988,0
1778,-0.0006283185,0.0005759586,0.004642576,0.001378118,0.0004071094,0,9.685108,35.64388,-991.7529,0
1783,-0.0006283185,0.0005759586,0.004642576,0.001378118,0.0004071094,0,9.685108,35.64388,-991.7529,0
1788,-0.0008203047,0.000418879,0.004276057,0.001372814,-8.961995E-06,0,-1.238502,17.52087,-985.1426,0
1793,-0.0008203047,0.000418879,0.004276057,0.001372814,-8.961995E-06,0,-1.238502,17.52087,-985.1426,0
1798,-0.000715585,0.0004712389,0.004118977,0.001601557,0.0001122916,0,2.584478,27.68163,-986.396,0
1803,-0.0003490658,0.0004363323,0.004223697,0.001928052,0.0003599972,0,21.63641,41.90729,-980.7964,0
1808,-0.0006283185,0.0005410521,0.004764749,0.00186505,0.0005827732,0,7.362447,42.5848,-989.8652,0
1813,-0.0006457719,0.0005759586,0.004729842,0.001640624,0.0004036498,0,0.596203,27.10645,-980.3837,0
1818,-0.0006108652,0.000593412,0.004729842,0.001639556,0.0007567533,0,8.895674,48.11924,-981.8016,0
1823,-0.0008726646,0.0006283185,0.004537856,0.001359748,0.0005770413,0,-2.430227,28.3613,-981.18,0
1828,-0.0006806784,0.0005410521,0.00439823,0.001641871,0.0007648393,0,19.27498,42.28357,-976.346,0
1833,-0.0008028515,0.0004886922,0.004485496,0.001441151,0.0007988652,0,0.64657,37.08947,-985.8597,0
1838,-0.0006981317,0.0004537856,0.004520403,0.001389833,0.0004636248,0,5.852727,21.91766,-973.8061,0
1843,-0.000593412,0.0004537856,0.004572763,0.001162328,0.0005109728,0,-1.538303,35.94593,-986.1035,0
1848,-0.0006806784,0.0005410521,0.004694935,0.0009648881,7.559713E-05,0,-1.120068,16.52572,-977.9019,0
1853,-0.0005585054,0.000593412,0.004502949,0.001058778,0.0002337419,0,10.13608,38.73649,-983.0161,0
1858,-0.0006806784,0.0006108652,0.004572763,0.0008986717,0.0002603274,0,0.2004165,34.30972,-980.3584,0
1863,-0.0006806784,0.000593412,0.004363323,0.0009469793,0.0004095129,0,8.035974,39.44281,-973.8403,0
1868,-0.0006632251,0.0005410521,0.004485496,0.0007053256,0.00046854,0,-3.714417,36.41108,-980.2046,0
1873,-0.0006981317,0.0005061455,0.004502949,0.0005873163,0.0003524416,0,0.2504741,29.57591,-976.9927,0
1878,-0.0006806784,0.0005235987,0.00455531,0.0005731542,0.0001965727,0,4.043348,27.4049,-988.186,0
1883,-0.0007330383,0.0005410521,0.004590216,0.000557393,0.0001205818,0,3.951194,30.10468,-984.2051,0
1888,-0.0007504916,0.000593412,0.004450589,0.0007295463,7.336624E-05,0,11.73618,31.00002,-984.1743,0
1893,-0.0007330383,0.000593412,0.004450589,0.0006395893,5.607502E-05,0,1.778202,32.02141,-978.7861,0
1900,-0.0007504916,0.0006457719,0.00434587,0.0006033962,0.0001214962,0,3.719409,35.35625,-975.5186,0
1905,-0.0007504916,0.0006457719,0.00434587,0.0006033962,0.0001214962,0,3.719409,35.35625,-975.5186,0
1910,-0.0007853982,0.0006632251,0.004485496,0.0002765481,0.0001497135,0,-0.8086607,37.78581,-977.1226,0
1915,-0.0007853982,0.0006632251,0.004485496,0.0002765481,0.0001497135,0,-0.8086607,37.78581,-977.1226,0
1920,-0.0008203047,0.0005759586,0.004677482,0.0001901981,0.0001091902,0,0.584018,32.95232,-979.6406,0
1925,-0.0008028515,0.0005759586,0.004642576,0.0002778392,0.0001870823,0,6.754915,36.27947,-983.5659,0
1930,-0.0007679448,0.0004886922,0.004642576,0.0001395225,1.183808E-05,0,-2.294032,26.18126,-983.1762,0
1935,-0.0006806784,0.0005585054,0.004502949,0.000205646,0.0001394273,0,5.629192,37.67914,-983.8974,0
1940,-0.0006806784,0.0005585054,0.004502949,0.000205646,0.0001394273,0,5.629192,37.67914,-983.8974,0
1945,-0.0006806784,0.0005759586,0.004520403,9.052133E-05,-4.657668E-05,0,3.066442,30.78339,-982.0776,0
1950,-0.0007679448,0.0006108652,0.004607669,4.850009E-05,-4.676083E-05,0,1.143429,32.38298,-984.3418,0
1955,-0.0007679448,0.0005585054,0.004590216,-6.96909E-05,-0.0002366229,0,-2.279318,24.59299,-986.5171,0
1960,-0.0007679448,0.000593412,0.00455531,-5.842191E-05,-2.516942E-05,0,2.587242,40.25324,-991.4496,0
1965,-0.0008203047,0.0005061455,0.004502949,-0.0002570154,-7.926165E-05,0,-6.129467,30.37647,-992.0331,0
1970,-0.0007679448,0.0005061455,0.004485496,-0.0002434426,0.0001263591,0,1.685723,40.70913,-993.2915,0
1975,-0.0008028515,0.0005061455,0.00455531,-0.0003719153,0.0001631722,0,-4.08173,34.76302,-989.5376,0
1980,-0.0008028515,0.0005061455,0.00455531,-0.0003719153,0.0001631722,0,-4.08173,34.76302,-989.5376,0
1985,-0.0008203047,0.000593412,0.004642576,-0.0002093242,7.791088E-05,0,5.531324,33.79637,-987.855,0
1990,-0.0008552113,0.0006283185,0.004572763,-9.382445E-05,-7.269224E-05,0,6.33233,27.02223,-987.9863,0
1995,-0.0008552113,0.0006283185,0.004572763,4.96219E-05,-4.84885E-06,0,7.989986,35.32941,-988.189,0
2000,-0.0008377581,0.0006283185,0.004485496,2.363225E-05,1.300294E-05,0,1.669449,33.55885,-985.124,0
2005,-0.0008028515,0.0005585054,0.004468043,-1.833058E-05,-2.221719E-05,0,0.7811002,31.39174,-982.793,0
2010,-0.0007853982,0.0005585054,0.004520403,-5.018848E-05,2.521895E-05,0,1.008663,34.578,-979.9004,0
2015,-0.0007853982,0.0005585054,0.004572763,-5.692727E-05,-2.850942E-05,0,1.900655,30.67759,-979.7012,0
2020,-0.0008028515,0.0005759586,0.004660029,-4.00197E-05,7.113882E-05,0,2.872445,36.77623,-980.7363,0
2025,-0.0009075712,0.0006457719,0.004660029,-6.870308E-05,0.0002138292,0,1.233079,39.17884,-983.1621,0
2030,-0.0009075712,0.0006632251,0.004590216,-0.0001801607,0.0002459156,0,-2.251975,35.29765,-983.3359,0
2035,-0.0009599311,0.0007504916,0.004502949,-0.0001677468,0.0004330559,0,2.511524,41.89679,-984.7417,0
2040,-0.0009075712,0.0006981317,0.004433136,-0.0002046889,0.0003092012,0,0.4623662,29.90382,-980.6426,0
2045,-0.0008726646,0.0006981317,0.004433136,-8.044087E-05,0.0003892641,0,6.910307,37.65584,-979.7261,0
2050,-0.0008901179,0.0006108652,0.004502949,-7.949528E-05,0.0002371061,0,2.228646,28.54363,-976.9697,0
2055,-0.0008552113,0.0006108652,0.004572763,-2.413737E-05,0.0001890535,0,4.460842,32.10487,-978.2246,0
2060,-0.0009599311,0.0006108652,0.004677482,1.463077E-05,0.0002332706,0,4.045919,35.8727,-981.2534,0
2065,-0.0009599311,0.0006457719,0.004677482,4.337645E-05,0.000208495,0,3.879475,33.27703,-981.3896,0
2070,-0.001012291,0.0007330383,0.004607669,0.0001254651,0.0004307726,0,6.352535,43.40102,-981.6821,0
2075,-0.001029744,0.0007330383,0.004520403,6.592022E-05,0.0003426719,0,0.9138142,31.70764,-978.2026,0
2080,-0.0009948376,0.0007853982,0.00439823,0.0001096297,0.0004305514,0,5.018723,38.49381,-977.6177,0
2085,-0.0009773844,0.0007330383,0.004415683,3.058562E-05,0.0003242494,0,0.07228574,30.91054,-977.2651,0
2090,-0.0009948376,0.000715585,0.004502949,0.0001077425,0.0003510052,0,6.106478,35.9445,-978.8335,0
2095,-0.0009773844,0.0006457719,0.004625122,7.246748E-05,0.0003664237,0,1.712562,35.59187,-978.8013,0
2100,-0.001047197,0.0006108652,0.004747296,6.751993E-05,0.000323816,0,2.720942,33.43076,-980.5137,0
2105,-0.001047197,0.0006283185,0.004660029,4.042788E-05,0.0003439639,0,1.839414,35.81341,-979.9824,0
2110,-0.001047197,0.0006283185,0.004660029,4.042788E-05,0.0003439639,0,1.839414,35.81341,-979.9824,0
2115,-0.001047197,0.0006981317,0.004485496,3.657919E-05,0.0003503304,0,5.728611,37.31166,-981.5181,0
2120,-0.0009773844,0.0007679448,0.004520403,2.541826E-05,0.000275199,0,2.66814,31.94444,-980.9575,0
2125,-0.001012291,0.000715585,0.004485496,0.0001579786,0.0001664748,0,8.415146,30.33588,-981.4136,0
2130,-0.0009424778,0.0007330383,0.004485496,0.0002211768,-0.0001144506,0,6.175141,22.66192,-980.1357,0
2135,-0.001029744,0.0006283185,0.004468043,0.0002584539,-0.0002567314,0,5.21486,27.30763,-981.5112,0
2140,-0.0009948376,0.000593412,0.00439823,0.0003801916,-0.0003664812,0,8.783233,27.97187,-980.9858,0
2145,-0.001082104,0.0006806784,0.004433136,0.0003665147,-0.0003065884,0,3.936004,34.59624,-979.5449,0
2150,-0.001064651,0.0006632251,0.004468043,0.0005358146,-0.0002875667,0,11.37337,33.16745,-979.3848,0
2155,-0.001029744,0.0008552113,0.004572763,0.0006404399,-0.000419467,0,9.830103,27.01366,-977.3047,0
2160,-0.001064651,0.0008028515,0.004642576,0.0007064958,-0.0005098634,0,8.642626,28.18969,-979.5571,0
2165,-0.001029744,0.0008203047,0.004590216,0.0008662029,-0.0007123451,0,12.82522,23.13779,-981.957,0
2170,-0.001117011,0.0007853982,0.004485496,0.0006764655,-0.0005618838,0,-0.8451855,36.89328,-983.5811,0
2175,-0.001099557,0.0006632251,0.004276057,0.0007367879,-0.0004644852,0,8.349466,35.33144,-985.8803,0
2180,-0.001134464,0.0007679448,0.004223697,0.0005667501,-0.0002233496,0,-0.5969139,41.71155,-981.9897,0
2185,-0.001082104,0.000715585,0.00424115,0.0006183746,-0.0001813405,0,7.647256,34.50735,-981.8666,0
2190,-0.001082104,0.000715585,0.00424115,0.0006183746,-0.0001813405,0,7.647256,34.50735,-981.8666,0
2195,-0.001064651,0.0008726646,0.004537856,0.0007261296,-0.0004453973,0,5.420228,28.31092,-980.1044,0
2200,-0.001064651,0.0008377581,0.004537856,0.0009034509,-0.0007145716,0,13.8137,20.78979,-983.418,0
2205,-0.001117011,0.0008726646,0.004502949,0.0007130193,-0.0005455781,0,-0.3758325,37.65143,-982.5547,0
2210,-0.001117011,0.0007679448,0.00429351,0.000758469,-0.0006037912,0,8.266512,29.07944,-985.481,0
2215,-0.001134464,0.0008726646,0.00429351,0.0007028154,-0.0003772461,0,4.568105,40.53898,-983.5762,0
2220,-0.001169371,0.0008901179,0.004206243,0.0006982409,-0.0003550695,0,6.481353,33.2003,-984.8105,0
2225,-0.001169371,0.0009424778,0.00439823,0.0007871834,-0.0002837522,0,10.40255,35.33227,-988.9077,0
2230,-0.001239184,0.0009773844,0.004450589,0.000660684,-6.400453E-05,0,2.054861,41.85871,-989.8545,0
2235,-0.00122173,0.0008726646,0.004520403,0.0006268455,-7.074967E-05,0,5.138283,33.53465,-994.4595,0
2240,-0.001169371,0.0009075712,0.004415683,0.0004438535,0.0001487696,0,-1.059481,42.68715,-989.1387,0
2245,-0.001134464,0.0008377581,0.00424115,0.0003239247,1.201449E-06,0,0.608698,28.53611,-986.0288,0
2250,-0.001029744,0.0008552113,0.004101524,0.0002709962,-5.332323E-05,0,2.88852,31.49745,-980.9243,0
2255,-0.001082104,0.0008552113,0.003996804,0.0001698684,-0.0001129532,0,0.7100118,31.17442,-978.4116,0
2260,-0.001117011,0.0008377581,0.004101524,0.0001686227,-0.0001628263,0,4.326179,31.40063,-981.1968,0
2265,-0.001117011,0.0008377581,0.004101524,0.0001686227,-0.0001628263,0,4.326179,31.40063,-981.1968,0
2270,-0.001308997,0.0007330383,0.004468043,5.620416E-05,0.0001746813,0,2.430143,36.89492,-980.9287,0
2275,-0.001239184,0.0007330383,0.004520403,3.012138E-05,0.0003102708,0,2.648211,40.52769,-977.3622,0
2280,-0.001239184,0.0007330383,0.004433136,-2.750453E-05,0.0001083933,0,1.240024,27.30868,-977.7587,0
2285,-0.001134464,0.0008552113,0.00418879,-1.8786E-05,-0.0002223069,0,3.983392,20.97014,-978.4853,0
2290,-0.00122173,0.0009773844,0.003944444,-3.109679E-05,-0.0002299298,0,3.405993,32.94702,-977.9639,0
2295,-0.001343903,0.001047197,0.003857178,9.719511E-07,-0.000272569,0,5.30339,31.71119,-979.6508,0
2300,-0.001343903,0.001047197,0.004014257,-2.647488E-06,9.960562E-05,0,3.991909,48.55138,-979.5176,0
2305,-0.001308997,0.0009599311,0.004276057,-6.947616E-05,4.792033E-05,0,1.221786,32.75324,-981.8662,0
2310,-0.001117011,0.0008901179,0.004502949,-0.0001252704,-0.0002832,0,1.255995,20.68017,-983.6577,0
2315,-0.001029744,0.0008901179,0.004485496,-0.0001226176,-0.0006443812,0,3.438226,17.84546,-983.2827,0
2320,-0.001082104,0.0008901179,0.004328417,3.128473E-05,-0.0008881016,0,9.62466,21.19274,-979.4945,0
2325,-0.001186824,0.0009424778,0.004171337,0.0002366693,-0.0003768308,0,12.51004,51.25951,-976.2811,0
2330,-0.001239184,0.0009424778,0.004118977,0.0003863769,0.0001717891,0,11.14456,55.13337,-973.2001,0
2335,-0.00122173,0.0008726646,0.004258603,0.0003720344,0.0004166987,0,4.972463,45.07104,-974.6992,0
2340,-0.001082104,0.0009075712,0.00429351,0.0003158551,0.000140724,0,3.256356,24.53143,-977.7744,0
2345,-0.00122173,0.0008377581,0.004363323,0.0002663887,-0.0004730747,0,3.17095,9.76215,-975.2885,0
2350,-0.001308997,0.0008552113,0.00434587,0.0004320072,-0.0006122602,0,11.80906,26.73872,-976.7133,0
2355,-0.001396263,0.0009250245,0.00434587,0.0005214417,-0.0002734211,0,9.573292,45.88633,-968.0566,0
2360,-0.001466077,0.0009250245,0.00439823,0.0005348941,6.39628E-05,0,6.888697,47.45622,-968.329,0
2365,-0.001204277,0.001082104,0.004363323,0.0003910954,-1.90872E-05,0,0.8229858,31.19942,-969.8144,0
2370,-0.001308997,0.001117011,0.00434587,0.0001729954,-0.0005058998,0,-2.746097,14.50023,-969.6083,0
2375,-0.001396263,0.001029744,0.004328417,0.0002537514,-0.001018758,0,8.399696,11.47353,-980.7382,0
2380,-0.001396263,0.001099557,0.004363323,0.0003015728,-0.0007656967,0,7.557069,40.63033,-974.9901,0
2385,-0.001553343,0.0009075712,0.004520403,0.0004196373,-0.000560411,0,10.253,40.08485,-981.1215,0
2390,-0.001186824,0.001012291,0.004537856,0.0003847665,-0.0005072402,0,4.717916,34.02995,-980.4031,0
2395,-0.001204277,0.001029744,0.004450589,0.0002196456,-0.0008856757,0,-0.7075417,16.59076,-980.1351,0
2400,-0.001239184,0.0009424778,0.00434587,0.0003968905,-0.00148514,0,12.4407,5.943587,-989.4671,0
2405,-0.00122173,0.001082104,0.004276057,0.00053067,-0.001154053,0,11.73299,41.40348,-984.0223,0
2410,-0.001413717,0.0008901179,0.004380776,0.0008157831,-0.000747281,0,18.15745,46.32809,-989.3574,0
2415,-0.001134464,0.001012291,0.004502949,0.000906624,-0.0003237523,0,11.71858,48.23417,-987.2598,0
2420,-0.001012291,0.001099557,0.004468043,0.0007007864,-0.0003749704,0,0.136535,30.4031,-983.2876,0
2425,-0.0009773844,0.001099557,0.004415683,0.0007654112,-0.0009821444,0,10.36462,7.326234,-986.2128,0
2430,-0.0009948376,0.001239184,0.00434587,0.0006298064,-0.0007166363,0,2.733618,40.4518,-977.2861,0
2435,-0.001169371,0.001099557,0.004328417,0.0008107782,-0.0003040541,0,14.88284,47.96824,-977.1444,0
2440,-0.001204277,0.001099557,0.004537856,0.0007830266,0.0003569098,0,7.121186,60.04686,-978.5394,0
2445,-0.001064651,0.001134464,0.004485496,0.00061276,0.0004676621,0,1.257694,40.11776,-978.1971,0
2450,-0.001117011,0.001117011,0.004520403,0.0005677747,-0.000246841,0,5.663563,6.917584,-988.3118,0
2455,-0.001099557,0.001204277,0.004363323,0.0003779089,-0.0005303262,0,-0.279061,21.40435,-984.91,0
2460,-0.001186824,0.001186824,0.00429351,0.0004644902,-0.0005764335,0,10.2257,30.07368,-983.1312,0
2465,-0.001256637,0.001117011,0.004380776,0.0004292134,-9.800753E-05,0,5.477024,51.50608,-980.1987,0
2470,-0.001099557,0.001169371,0.004328417,0.0003964973,4.408472E-05,0,5.544141,39.5099,-973.498,0
2475,-0.001064651,0.001151917,0.004310963,0.0003776256,-0.0004123163,0,5.972646,15.57154,-978.75,0
2480,-0.001117011,0.001186824,0.00418879,0.0003652315,-0.0008929789,0,6.237804,12.68436,-976.1777,0
2485,-0.00122173,0.001239184,0.004136431,0.0004359027,-0.0008457415,0,9.710164,32.42554,-977.7646,0
2490,-0.001396263,0.001169371,0.004206243,0.0004681897,-0.0002751984,0,8.343912,54.41164,-976.5957,0
2495,-0.001396263,0.001239184,0.00434587,0.0003972081,0.0003338642,0,4.38387,58.47665,-975.1758,0
2500,-0.001291544,0.001291544,0.00434587,0.0002436354,0.0002110048,0,0.8359042,30.97861,-979.9536,0
2505,-0.00137881,0.001343903,0.004276057,0.0001759496,-0.000383216,0,3.805534,11.31688,-980.3422,0
2510,-0.00148353,0.00143117,0.004153884,0.0001973373,-0.0007536005,0,7.342691,18.10789,-983.394,0
2515,-0.001640609,0.001413717,0.004136431,0.0003360843,-0.0005438467,0,12.24337,40.5864,-980.0839,0
2520,-0.001727876,0.001361357,0.00429351,0.0003692084,0.000100214,0,8.4397,59.45082,-980.1869,0
2525,-0.001518436,0.001396263,0.00439823,0.0002005558,0.0003009336,0,0.4092944,43.70499,-979.1737,0
2530,-0.001413717,0.001343903,0.00439823,1.913248E-05,-6.6064E-06,0,-0.9428574,23.55672,-979.2434,0
2535,-0.001413717,0.001343903,0.004328417,-0.0001360022,-0.0005287902,0,-0.6572298,13.42501,-978.9753,0
2540,-0.001413717,0.001239184,0.00418879,-8.589965E-05,-0.0005117471,0,6.904716,33.24752,-975.5187,0
2545,-0.00153589,0.001047197,0.00418879,3.769392E-05,-8.27703E-05,0,9.73759,50.46521,-973.9647,0
2550,-0.00143117,0.0009773844,0.004223697,5.117956E-05,0.0001923735,0,5.63263,45.84428,-973.8661,0
2555,-0.00132645,0.0008901179,0.004153884,8.671029E-05,-4.710759E-05,0,6.453331,25.76278,-973.0439,0
2560,-0.001448623,0.0009773844,0.004171337,9.462931E-05,-0.000717256,0,5.636792,7.339407,-976.4594,0
2565,-0.001500983,0.001082104,0.00408407,0.0002654048,-0.0008789629,0,12.56529,25.33918,-975.1976,0
2570,-0.001710423,0.001134464,0.004118977,0.0004736963,-0.0004902149,0,14.97865,47.59237,-974.3273,0
2575,-0.001727876,0.001186824,0.00424115,0.0005781334,2.744149E-05,0,11.75788,54.62577,-978.3076,0
2580,-0.001553343,0.001256637,0.00418879,0.0005488627,0.0001272581,0,6.904324,39.42619,-974.5536,0
2585,-0.001623156,0.001291544,0.004153884,0.0004032688,-0.0004549824,0,2.078696,12.09178,-982.6954,0
2590,-0.001675516,0.001308997,0.00408407,0.0003219183,-0.0008280692,0,4.143666,18.2307,-980.2537,0
2595,-0.001815142,0.00127409,0.004049164,0.0002566941,-0.0006223451,0,4.420053,40.58783,-981.9086,0
2600,-0.001902409,0.001151917,0.00424115,0.0002689234,-7.171681E-05,0,7.064388,55.78978,-984.4442,0
2605,-0.001658063,0.001151917,0.00434587,0.0001325246,0.0002796852,0,1.036647,49.55889,-980.2864,0
2610,-0.00153589,0.001029744,0.00434587,6.239392E-05,-8.215508E-05,0,2.961592,21.65989,-986.2179,0
2615,-0.001605703,0.001012291,0.00434587,3.591643E-05,-0.0006279143,0,4.41082,12.67587,-982.7418,0
2620,-0.001692969,0.001012291,0.004171337,0.0001500982,-0.000597583,0,10.07409,34.10698,-984.1204,0
2625,-0.001954769,0.0009773844,0.00418879,0.0003595058,-0.0001702008,0,14.40773,51.04589,-982.8774,0
2630,-0.001954769,0.001082104,0.004258603,0.0003559115,0.0003903765,0,6.812377,58.36035,-980.1494,0
2635,-0.001850049,0.001134464,0.00418879,0.0002421835,0.0002704372,0,2.403628,32.72892,-979.9433,0
2640,-0.001937315,0.001169371,0.004171337,1.267906E-05,-0.0002636733,0,-2.734766,15.44215,-978.034,0
2645,-0.001954769,0.001186824,0.004031711,-0.0001403325,-0.0004792958,0,-0.5683832,26.21245,-977.9266,0
2650,-0.002094395,0.001099557,0.004049164,-8.475967E-05,-0.000225123,0,7.146145,44.81259,-976.6966,0
2655,-0.002111848,0.0009948376,0.004206243,-3.510308E-05,0.0002862517,0,6.948199,56.51056,-979.9545,0
2660,-0.001867502,0.0009424778,0.004258603,-7.73933E-05,0.0002634605,0,3.304469,36.38499,-980.0722,0
2665,-0.001850049,0.0008552113,0.004276057,-0.0001536224,-0.0002698507,0,1.573902,15.3683,-984.6581,0
2670,-0.001884956,0.0008552113,0.004276057,-0.0003040284,-0.0008146508,0,-1.799229,12.66492,-985.1761,0
2675,-0.001954769,0.0008901179,0.004171337,-0.000204744,-0.0006630708,0,7.848838,38.9565,-980.7758,0
2680,-0.002111848,0.0008377581,0.004328417,-9.83036E-05,-0.0001962114,0,8.485748,52.86313,-982.4243,0
2685,-0.001884956,0.0009599311,0.004363323,-0.0001226755,7.631451E-05,0,3.84652,46.48627,-976.731,0
2690,-0.001780236,0.0009075712,0.004276057,-0.0001603395,-0.0002843162,0,3.082292,21.54098,-981.2226,0
2695,-0.001884956,0.0009424778,0.00424115,-0.0004204148,-0.00106494,0,-6.11143,2.969729,-982.0497,0
2700,-0.001902409,0.0009075712,0.003996804,-0.0003690801,-0.001169072,0,5.440521,27.33835,-979.0219,0
2705,-0.002181662,0.0008377581,0.004101524,-0.00032616,-0.000922152,0,5.203497,41.83354,-981.4404,0
2710,-0.002111848,0.0008552113,0.004223697,-0.000280729,-0.000470667,0,5.52462,51.12811,-976.8168,0
2715,-0.001954769,0.0008726646,0.004276057,-0.0002591076,-0.000561167,0,4.779702,30.59637,-980.5327,0
2720,-0.002007129,0.0009075712,0.004363323,-0.0004558782,-0.001242435,0,-4.014472,6.101836,-981.8745,0
2725,-0.002007129,0.0009075712,0.004363323,-0.0004558782,-0.001242435,0,-4.014472,6.101836,-981.8745,0
2730,-0.002111848,0.0009250245,0.004223697,-0.0001969193,-0.001150942,0,9.008692,41.2237,-979.2236,0
2735,-0.002076942,0.0008552113,0.004310963,9.552859E-05,-0.0004399077,0,16.21726,60.70411,-976.1874,0
2740,-0.001850049,0.0009424778,0.004363323,0.0001446165,-0.0001812897,0,7.677561,44.83314,-977.4803,0
2745,-0.001832596,0.0008552113,0.004363323,1.311587E-05,-0.0006069153,0,0.3419544,17.88802,-981.1737,0
2750,-0.001867502,0.0009424778,0.00434587,-0.0001489212,-0.001026207,0,-1.306083,16.37654,-982.0097,0
2755,-0.001954769,0.0008726646,0.004206243,-0.0002136664,-0.0009064454,0,1.862555,36.7947,-979.7358,0
2760,-0.002076942,0.0008203047,0.00434587,-8.135607E-05,-0.0003208876,0,9.560495,56.66166,-977.3472,0
2765,-0.002076942,0.0008203047,0.00434587,-8.135607E-05,-0.0003208876,0,9.560495,56.66166,-977.3472,0
2770,-0.001762783,0.0008028515,0.004363323,-9.347982E-05,-8.657765E-05,0,4.081245,27.29211,-976.5356,0
2775,-0.001884956,0.0008552113,0.004363323,-0.0003057457,-0.0006658081,0,-3.960444,12.16089,-979.6425,0
2780,-0.001954769,0.0008552113,0.004171337,-0.0002375286,-0.0008074805,0,6.610616,27.72133,-977.5449,0
2785,-0.002199115,0.0008726646,0.00429351,-0.0001186054,-0.0004067695,0,9.030451,49.83772,-978.2036,0
2791,-0.002146755,0.0009424778,0.00439823,9.946972E-05,0.0001167041,0,13.74391,56.51551,-978.4882,0
2796,-0.001919862,0.001064651,0.004485496,7.982165E-05,0.0001769348,0,5.209636,39.37403,-980.269,0
2802,-0.001832596,0.001134464,0.004433136,-0.0003373714,-0.0006619281,0,-2.011405,22.79183,-983.3691,0
2807,-0.001832596,0.001134464,0.004433136,-0.0003373714,-0.0006619281,0,-2.011405,22.79183,-983.3691,0
2812,-0.001937315,0.001047197,0.004380776,-0.000447635,-0.0003649584,0,-0.390964,45.74963,-981.2695,0
2817,-0.001972222,0.0009424778,0.004502949,-0.0003182075,0.0001921099,0,8.733026,57.79878,-981.1537,0
2822,-0.001727876,0.0009599311,0.004537856,-0.0003994298,0.0005752171,0,0.6961875,52.63699,-978.4257,0
2827,-0.001692969,0.0008901179,0.004537856,-0.0005435619,0.0001811656,0,-2.383708,22.42361,-986.4349,0
2832,-0.001727876,0.0009599311,0.004485496,-0.0007468561,-0.0001600099,0,-5.301851,22.96222,-984.2831,0
2837,-0.001745329,0.0009773844,0.004380776,-0.0006728849,-3.478066E-05,0,5.227755,40.64048,-984.5907,0
2842,-0.001867502,0.0009773844,0.004537856,-0.0004206453,0.0004750242,0,12.86036,57.2104,-985.9227,0
2847,-0.001623156,0.001099557,0.004642576,-0.0002047991,0.0008887533,0,12.69647,55.01548,-985.7864,0
2852,-0.001466077,0.001099557,0.004660029,-0.0002155805,0.0006226542,0,4.350732,28.70432,-989.2707,0
2857,-0.001605703,0.001082104,0.004660029,-0.000351245,6.943024E-05,0,-0.8278677,16.05779,-989.342,0
2862,-0.001640609,0.001117011,0.004502949,-0.0003869009,-4.477613E-05,0,2.734224,31.729,-982.8943,0
2867,-0.001867502,0.0009948376,0.00455531,-0.0002714611,0.0003338681,0,8.549713,51.90002,-981.7903,0
2872,-0.001745329,0.001047197,0.004642576,-9.693162E-05,0.0006915385,0,11.57211,52.49087,-982.8514,0
2877,-0.00153589,0.001012291,0.004607669,-0.0001664541,0.0006352106,0,2.282109,36.66931,-981.742,0
2882,-0.001710423,0.0009599311,0.004625122,-0.0002494281,-8.392436E-05,0,1.328104,9.665726,-990.0741,0
2887,-0.001815142,0.001064651,0.004450589,-0.0003445307,-0.0004373816,0,0.6625332,21.72424,-980.7958,0
2892,-0.002076942,0.001029744,0.004433136,-0.0001765238,-0.0002829625,0,10.96131,41.53492,-980.8008,0
2897,-0.002146755,0.001151917,0.00455531,8.247766E-05,-5.630472E-05,0,15.68689,45.3329,-985.3408,0
2902,-0.001832596,0.001239184,0.004572763,0.0001023684,8.618455E-05,0,7.19566,42.24739,-980.4424,0
2907,-0.001954769,0.00122173,0.004590216,8.931121E-05,-0.0005225351,0,5.90262,12.36481,-995.061,0
2912,-0.001937315,0.00127409,0.004485496,-0.0001464857,-0.0009539879,0,-3.150686,16.9304,-982.5389,0
2917,-0.002024582,0.001151917,0.004328417,-7.249705E-05,-0.0007250489,0,8.288129,42.3071,-977.6926,0
2922,-0.002111848,0.001064651,0.004502949,7.101639E-05,-0.0006168025,0,11.30767,38.53449,-981.1462,0
2927,-0.001692969,0.001047197,0.004450589,0.0001223776,-0.0001646054,0,8.098713,52.27672,-968.4045,0
2932,-0.001850049,0.0008901179,0.004468043,0.0002217828,-0.0005667074,0,10.00017,19.54231,-990.1272,0
2937,-0.001797689,0.0009424778,0.00439823,4.890497E-05,-0.0008864061,0,-0.5882255,21.07835,-982.2659,0
2942,-0.001867502,0.0009424778,0.00418879,0.0002188907,-0.0004683841,0,12.68386,50.06038,-982.8198,0
2947,-0.001937315,0.0009424778,0.004380776,0.0003244425,-0.0004759796,0,10.83218,34.59442,-991.6841,0
2952,-0.001570796,0.001151917,0.004328417,0.0003515055,0.0001076512,0,8.483111,58.04419,-973.6806,0
2957,-0.001762783,0.001047197,0.00434587,0.0003533975,-0.0003803871,0,7.401439,17.07189,-992.2703,0
2962,-0.001850049,0.001291544,0.004310963,0.0001228735,-0.000819259,0,-1.628742,17.15701,-980.9582,0
2967,-0.001989675,0.001239184,0.004101524,0.000222126,-0.0006423312,0,10.80012,40.76106,-976.1559,0
2973,-0.002146755,0.001308997,0.004363323,0.0002925521,-0.000933845,0,10.21132,22.66918,-988.7478,0
2978,-0.001850049,0.00143117,0.004328417,0.0002509966,-0.0005638176,0,6.18443,47.91241,-965.931,0
2983,-0.002164208,0.00143117,0.004380776,-5.166313E-05,-0.001394428,0,-5.132586,16.91796,-975.118,0
2988,-0.002164208,0.00143117,0.004380776,-5.166313E-05,-0.001394428,0,-5.132586,16.91796,-975.118,0
2993,-0.002164208,0.001204277,0.004171337,7.854661E-05,-0.001026204,0,11.33866,46.46115,-974.2224,0
2998,-0.001727876,0.001169371,0.004363323,-3.611387E-05,-0.0008139854,0,3.566514,49.56345,-969.2977,0
3003,-0.001902409,0.001064651,0.004328417,-7.355689E-05,-0.0009966032,0,4.290965,25.87542,-996.0433,0
3008,-0.001937315,0.001134464,0.004171337,-0.0004321742,-0.001232935,0,-8.895074,22.94528,-971.0771,0
3013,-0.001937315,0.001134464,0.004171337,-0.0004321742,-0.001232935,0,-8.895074,22.94528,-971.0771,0
3018,-0.001972222,0.0009599311,0.00397935,-0.0001915312,-0.0005336959,0,13.75558,60.33019,-972.6501,0
3023,-0.002059489,0.001099557,0.00429351,-0.0003340921,-0.0008424236,0,-0.6132581,22.24228,-982.3285,0
3028,-0.001727876,0.001029744,0.004258603,-0.0002368536,-0.0003366813,0,8.483521,53.61248,-963.5555,0
3033,-0.002059489,0.001082104,0.00434587,-0.0003327027,-0.0006710774,0,1.091927,22.06226,-995.7801,0
3038,-0.002129302,0.001169371,0.004276057,-0.0005023251,-0.000931579,0,-2.168838,23.80337,-969.7546,0
3043,-0.002251475,0.001064651,0.004153884,-0.000114422,-0.0002618841,0,19.73533,61.02604,-986.1881,0
3048,-0.002356195,0.001291544,0.004433136,-0.0001881827,-0.0008676226,0,2.980036,11.89354,-985.7366,0
3053,-0.002042035,0.001204277,0.004328417,0.0001196548,-0.0003606564,0,18.10509,54.22387,-974.327,0
3058,-0.002391101,0.00137881,0.004450589,-9.610341E-05,-0.001084227,0,-1.625991,6.724237,-998.6807,0
3063,-0.002216568,0.001256637,0.004258603,-4.881961E-05,-0.0007103314,0,12.0359,51.90796,-991.7108,0
3068,-0.002216568,0.001256637,0.004258603,-4.881961E-05,-0.0007103314,0,12.0359,51.90796,-991.7108,0
3073,-0.001867502,0.001099557,0.00418879,-0.0001108225,-0.0005948017,0,13.91417,59.52759,-988.7095,0
3078,-0.002251475,0.00127409,0.004310963,-0.0005212604,-0.001371797,0,-10.79043,3.257896,-1003.078,0
3083,-0.002251475,0.00127409,0.004310963,-0.0005212604,-0.001371797,0,-10.79043,3.257896,-1003.078,0
3088,-0.002024582,0.001047197,0.004136431,-0.0003585487,-0.0008786562,0,10.45523,51.43632,-979.1233,0
3093,-0.002199115,0.001151917,0.004328417,-0.0002660402,-0.000556491,0,8.514618,46.93348,-1004.328,0
3100,-0.002199115,0.001151917,0.004328417,-0.0002660402,-0.000556491,0,8.514618,46.93348,-1004.328,0
3105,-0.002321288,0.001204277,0.004468043,-0.0003316617,-0.0007283604,0,-7.71512,7.45955,-971.3358,0
3110,-0.002181662,0.001064651,0.00429351,2.209075E-05,-4.650493E-06,0,19.16868,64.05463,-970.5042,0
3115,-0.002286381,0.001256637,0.004607669,-0.0002364771,-0.0003434355,0,-3.96562,23.92512,-979.0696,0
3120,-0.002024582,0.001099557,0.004502949,-0.0001564243,-0.0002615349,0,8.460582,39.15116,-958.6248,0
3125,-0.002356195,0.001291544,0.004590216,-0.0002386945,-0.0002633315,0,2.551337,36.78681,-987.56,0
3130,-0.002391101,0.001239184,0.004502949,-0.0004107772,-0.0008629126,0,-1.586513,12.3496,-964.5781,0
3135,-0.002391101,0.001239184,0.004502949,-0.0004107772,-0.0008629126,0,-1.586513,12.3496,-964.5781,0
3140,-0.002356195,0.00122173,0.004450589,-7.570616E-05,-0.0004132798,0,18.42995,52.66656,-993.2524,0
3145,-0.002268928,0.001308997,0.004590216,-0.0004001364,-0.001086693,0,-6.957276,8.466008,-978.9077,0
3150,-0.002478368,0.001308997,0.004450589,-0.0006084755,-0.001124869,0,-12.21463,20.22121,-984.6698,0
3155,-0.002303835,0.001082104,0.00424115,-0.0005476549,-0.0009655584,0,6.076622,39.56293,-970.1234,0
3160,-0.002338741,0.00127409,0.004572763,-0.0006339477,-0.0007113213,0,0.7168664,44.1888,-987.5164,0
3165,-0.002042035,0.001169371,0.004590216,-0.0007757801,-0.0008773944,0,-2.177947,27.49579,-963.5365,0
3170,-0.002094395,0.001134464,0.004694935,-0.0005755418,-0.000556297,0,11.1736,46.84607,-983.9086,0
3175,-0.002094395,0.001151917,0.004729842,-0.00071563,-0.0008451191,0,-1.879644,23.27383,-963.1806,0
3180,-0.002094395,0.001151917,0.004729842,-0.00071563,-0.0008451191,0,-1.879644,23.27383,-963.1806,0
3185,-0.001972222,0.001204277,0.004799656,-0.0002909567,-0.0006648882,0,3.058888,27.76639,-979.4854,0
